TAXPAYER_NUMBER,TAXPAYER_NAME,TAXPAYER_ADDRESS,TAXPAYER_CITY,TAXPAYER_STATE,TAXPAYER_ZIP_CODE,TAXPAYER_COUNTY_CODE,TAXPAYER_ORGANIZATION_TYPE,OUTLET_NUMBER,OUTLET_NAME,OUTLET_ADDRESS,OUTLET_CITY,OUTLET_STATE,OUTLET_ZIP_CODE,OUTLET_COUNTY_CODE,OUTLET_NAICS_CODE,OUTLET_INSIDE/OUTSIDE_CITY_LIMITS_INDICATOR,OUTLET_PERMIT_ISSUE_DATE,OUTLET_FIRST_SALES_DATE,ID,Latitude,Longitude,Match_Status,Match_Type
17527673150,"ORTEGA INVESTMENTS, INC.",2727 LYNDON B JOHNSON FWY STE 927,FARMERS BRNCH,TX,75234,57,CT,3,LA AZTECA MEAT MARKET #2,3046 FOREST LN STE B,DALLAS,TX,75234,57.0,445210.0,Y,04/02/2007,04/05/2007,0,32.909523384707,-96.875627017026,Match,Non_Exact
32050333254,"WINCO FOODS, LLC",PO BOX 5756 ATTN: KIRBY SANDBERG,BOISE,ID,83705,0,CI,6,WINCO FOODS,1122 W CENTERVILLE RD,GARLAND,TX,75041,57.0,445110.0,Y,11/24/2014,02/03/2015,1,,,No_Match,
32085465873,JMSY FAMILY INC,2332 BELLA CT,CARROLLTON,TX,75010,61,CT,1,DONUT HOUSE,6421 RIVERSIDE DR STE 110,IRVING,TX,75039,57.0,445291.0,Y,07/21/2022,08/01/2022,2,32.897319553596,-96.939050248351,Match,Exact
32059446701,JOSEFINA SANCHEZ,1639 S BUCKNER BLVD,DALLAS,TX,75217,57,IS,1,DULCERIA EMMANUEL,1639 S BUCKNER BLVD,DALLAS,TX,75217,57.0,445292.0,Y,02/01/2016,01/01/2016,3,32.740362487008,-96.683041428861,Match,Non_Exact
32044349556,KIM & KU INC.,11445 EMERALD ST STE 112,DALLAS,TX,75229,57,CT,3,SK DONUTS,5181 KELLER SPRINGS RD STE 103,DALLAS,TX,75248,57.0,445291.0,Y,05/02/2019,05/15/2019,4,,,No_Match,
32063121290,BLIS LLC,1900 S JOSEY LN,CARROLLTON,TX,75006,57,CL,1,POSCO BEER & WINE,1900 S JOSEY LN,CARROLLTON,TX,75006,57.0,445120.0,Y,04/05/2017,05/15/2017,5,32.96467488744,-96.889922895209,Match,Non_Exact
32054847713,"HOODKIN ENTERPRISES, INC.",8424 PRESTON RD,DALLAS,TX,75225,57,CT,1,LAVON CHEVRON,3310 LAVON DR,GARLAND,TX,75040,57.0,445120.0,Y,03/20/2015,04/01/2015,6,,,No_Match,
32040748454,"SHAYONA VEGETARIAN, LLC",81 SUTTONS LN,PISCATAWAY,NJ,08854,0,CL,8,BAPS SHAYONA,4601 N STATE HIGHWAY 161,IRVING,TX,75038,57.0,445299.0,Y,08/09/2010,07/01/2010,7,,,No_Match,
32068166191,AFSA ENTERPRISES INC,1600 MARSH LN STE 100,CARROLLTON,TX,75006,57,CT,1,ONE STOP FOOD STORE,1600 MARSH LN STE 100,CARROLLTON,TX,75006,57.0,445120.0,Y,10/18/2018,10/15/2018,8,,,No_Match,
32069866518,MARIA ANDREE BOUTIQUE BAKERY LLC,6906 SNIDER PLZ,DALLAS,TX,75205,57,CL,1,MARIA ANDREE BOUTIQUE BAKERY,6906 SNIDER PLZ,DALLAS,TX,75205,57.0,445291.0,Y,12/15/2020,12/18/2020,9,32.849445592542,-96.787728484408,Match,Exact
32063533080,TEAM BAILEY LLC,7720 WINDSOR DR,ALLENTOWN,PA,18106,0,CL,9,DOMINO'S #6971,2615 OAK LAWN AVE STE 110,DALLAS,TX,75219,57.0,445299.0,Y,12/13/2017,01/08/2018,10,32.805478942931,-96.812826299989,Match,Exact
17418740332,"FIESTA MART, L.L.C.",600 CITADEL DR,COMMERCE,CA,90040,0,CL,64,FIESTA MART #40,5334 ROSS AVE,DALLAS,TX,75206,57.0,445110.0,Y,03/26/1996,03/26/1996,11,32.809707500376,-96.771919018348,Match,Exact
14312832968,"MORAN FOODS, LLC",400 NORTHWEST PLAZA DR,SAINT ANN,MO,63074,0,CI,82,SAVE-A-LOT #757,2233 N PRAIRIE CREEK RD,DALLAS,TX,75227,57.0,445110.0,Y,12/22/2010,01/06/2011,12,32.750592964147,-96.665240874123,Match,Exact
17427437011,SPEC'S FAMILY CORP.,2410 SMITH ST,HOUSTON,TX,77006,101,CT,93,"SPEC'S WINES, SPIRITS & FINER FOODS, #218, SFP DIS",4136 S CARRIER PKWY STE 350,GRAND PRAIRIE,TX,75052,57.0,445310.0,Y,01/27/2023,02/01/2023,13,32.671300056949,-97.005781666182,Match,Exact
32097165180,ONHAND VENDING LLC,757 LAKE CAROLYN PKWY APT 1235,IRVING,TX,75039,57,CL,1,ONHAND VENDING LLC,757 LAKE CAROLYN PKWY APT 1235,IRVING,TX,75039,57.0,445120.0,Y,10/22/2024,10/25/2024,14,32.864310710255,-96.92903041087,Match,Exact
17606039679,"RANDALL'S BEVERAGE COMPANY, INC.",PO BOX 29096,PHOENIX,AZ,85038,0,CT,139,TOM THUMB #1783,2645 ARAPAHO ROAD,GARLAND,TX,75044,57.0,445110.0,Y,05/10/2005,06/01/2005,15,32.959649205707,-96.66480715366,Match,Exact
32051781550,RMB CAPITAL HOLDING INC,4928 COLUMBIA AVE,DALLAS,TX,75214,57,CT,1,JOHNNYS LIQUOR #3,4928 COLUMBIA AVE,DALLAS,TX,75214,57.0,445310.0,Y,09/09/2013,09/20/2013,16,32.795368553184,-96.763188753689,Match,Exact
17430997936,TEXAS HALA CORP.,3901 W NORTHGATE DR,IRVING,TX,75062,57,CT,1,ZAM ZAM SUPERMARKET,3901 W NORTHGATE DR,IRVING,TX,75062,57.0,445110.0,Y,02/02/2006,02/10/2006,17,32.857144162513,-97.001659392401,Match,Exact
32086530287,MAMA TECHNOLOGIES INC,8187 NW 74TH AVE,MEDLEY,FL,33166,0,CF,1,MAMA TECHNOLOGIES INC,4653 NALL RD STE F2,FARMERS BRANCH,TX,75244,57.0,445299.0,Y,07/24/2023,10/03/2022,18,32.935700293658,-96.828846329583,Match,Exact
32063533080,TEAM BAILEY LLC,7720 WINDSOR DR,ALLENTOWN,PA,18106,0,CL,2,DOMINO'S #6564,4880 SUNNYVALE ST,DALLAS,TX,75216,57.0,445299.0,Y,12/13/2017,01/08/2018,19,32.695615378493,-96.772638065062,Match,Exact
32063533080,TEAM BAILEY LLC,7720 WINDSOR DR,ALLENTOWN,PA,18106,0,CL,18,DOMINO'S #6918,10909 WEBB CHAPEL RD STE 118,DALLAS,TX,75229,57.0,445299.0,Y,12/13/2017,01/08/2018,20,,,No_Match,
32063533080,TEAM BAILEY LLC,7720 WINDSOR DR,ALLENTOWN,PA,18106,0,CL,12,DOMINO'S #6975,222 N STORY RD STE 118,IRVING,TX,75061,57.0,445299.0,Y,12/13/2017,01/08/2018,21,32.816543194923,-96.97632744756,Match,Exact
32020855790,"RICHLAND MARKET GROCERY, INC.",9410 WALNUT ST STE 102,DALLAS,TX,75243,57,CT,1,RICHLAND MARKET GROCERY INC,9410 WALNUT ST STE 102,DALLAS,TX,75243,57.0,445120.0,Y,10/27/2006,10/01/2006,22,32.923353592746,-96.736977667789,Match,Exact
32063533080,TEAM BAILEY LLC,7720 WINDSOR DR,ALLENTOWN,PA,18106,0,CL,13,DOMINO'S #6983,2220 MARSH LN STE 100,CARROLLTON,TX,75006,57.0,445299.0,Y,12/13/2017,01/08/2018,23,32.969806885481,-96.854551845869,Match,Exact
32061904648,HIWOT TEGEN,1437 S JUPITER RD,GARLAND,TX,75042,57,IS,1,HIWOT INJERA,1437 S JUPITER RD,GARLAND,TX,75042,57.0,445230.0,Y,01/25/2024,11/01/2016,24,32.89974727066,-96.683132833685,Match,Exact
32070797942,CATHERINE BUI,3906 BURNING TREE LN,GARLAND,TX,75042,57,IS,1,HUONG VIET,1303 W BUCKINGHAM RD STE 101,GARLAND,TX,75040,57.0,445299.0,Y,05/22/2019,07/01/2019,25,,,No_Match,
14312832968,"MORAN FOODS, LLC",400 NORTHWEST PLAZA DR,SAINT ANN,MO,63074,0,CI,47,SAVE-A-LOT #738,1150 W KIEST BLVD STE 201,DALLAS,TX,75224,57.0,445110.0,Y,11/14/2005,07/01/2005,26,32.705729983079,-96.842446436719,Match,Exact
32067949753,MARIA E ZANAS,6417 SILVERY MOON DR,DALLAS,TX,75241,57,IS,1,MI RINCON LATINO,11206 LAKE JUNE RD STE E,BALCH SPRINGS,TX,75180,57.0,445120.0,Y,05/10/2019,08/15/2018,27,32.733989968864,-96.635485380804,Match,Non_Exact
32049263703,VARSHA INC,1117 SHEARWATER LN,GARLAND,TX,75043,57,CT,1,EXPRESS WAY,3925 BROADWAY BLVD,GARLAND,TX,75043,57.0,445120.0,Y,10/19/2012,01/10/2013,28,32.866023234539,-96.607047882609,Match,Exact
16806574493,MONTEREY FOODS LLC,2501 E GUASTI RD,ONTARIO,CA,91761,0,CL,1,EL RANCHO #15,10020 MARSH LN,DALLAS,TX,75229,57.0,445110.0,Y,12/10/2007,02/01/2008,29,32.881246807063,-96.856051562125,Match,Exact
17418740332,"FIESTA MART, L.L.C.",600 CITADEL DR,COMMERCE,CA,90040,0,CL,98,FIESTA MART # 70,1235 S JOSEY LN,CARROLLTON,TX,75006,57.0,445110.0,Y,08/15/2008,10/01/2008,30,32.950704227597,-96.890122945445,Match,Exact
32084608457,K&A HUTCHINS INC,3044 OLD DENTON RD STE 300,CARROLLTON,TX,75007,61,CT,1,LA PLAZA FOOD MARKETS,801 W PALESTINE ST # 106,HUTCHINS,TX,75141,57.0,445310.0,Y,07/14/2022,08/01/2022,31,32.648903065065,-96.708404384865,Match,Non_Exact
14312832968,"MORAN FOODS, LLC",400 NORTHWEST PLAZA DR,SAINT ANN,MO,63074,0,CI,84,SAVE-A-LOT #755,1055 W PLEASANT RUN RD,LANCASTER,TX,75146,57.0,445110.0,Y,12/17/2012,01/11/2013,32,32.605050573064,-96.779838354163,Match,Exact
32062591105,SAI KAMALESORI INC,8505 REVENUE WAY,N RICHLND HLS,TX,76182,220,CT,1,FOOD PLUS,6214 SAMUELL BLVD,DALLAS,TX,75228,57.0,445120.0,Y,10/24/2024,02/01/2017,33,32.792075828527,-96.698767667295,Match,Exact
32063533080,TEAM BAILEY LLC,7720 WINDSOR DR,ALLENTOWN,PA,18106,0,CL,8,DOMINO'S #6927,13260 JOSEY LN STE 117,FARMERS BRANCH,TX,75234,57.0,445299.0,Y,12/13/2017,01/08/2018,34,32.926386327561,-96.881432977965,Match,Exact
32029362228,MEXICO FOODS LLC,PO BOX 2069,ADDISON,TX,75001,57,CL,2,EL RANCHO,2314 W ILLINOIS AVE,DALLAS,TX,75224,57.0,445110.0,Y,09/07/2023,07/01/2023,35,32.72015806774,-96.856342553572,Match,Exact
32090671267,SARAV GROUP LLC,6700 SLEEPY RIVER ST,MCKINNEY,TX,75070,43,CL,1,CREAMISTRY,5100 BELT LINE RD STE 610,DALLAS,TX,75254,57.0,445299.0,Y,07/28/2023,07/28/2023,36,,,No_Match,
32051896580,MSQ FROG LLC,21620 I-20,CANTON,TX,75103,234,CL,1,SWEET FROG,1515 N TOWN EAST BLVD STE 121,MESQUITE,TX,75150,57.0,445299.0,Y,12/10/2013,12/01/2013,37,32.81094264592,-96.620719920038,Match,Exact
32055078714,SMZ FOOD MART INC,2001 DOVE CREEK LN,MESQUITE,TX,75149,57,CT,1,STOP N SHOP FOOD MART BEER & WINE,3195 GREAT TRINITY FOREST WAY # A1,DALLAS,TX,75216,57.0,445120.0,Y,12/11/2014,01/01/2015,38,,,No_Match,
32082147748,SHIVASUNI LLC,6714 CHRISTINA LN,GARLAND,TX,75043,57,CL,1,RARA FOOD MART,3300 SHEPHERD LN STE A,BALCH SPRINGS,TX,75180,57.0,445120.0,Y,12/14/2021,12/24/2021,39,32.724621125423,-96.613992735194,Match,Non_Exact
32041807838,"47ST02 ENTERPRISES, INC.",4702 E GRAND AVE,DALLAS,TX,75223,57,CT,1,$ STUFF & MORE,4702 E GRAND AVE,DALLAS,TX,75223,57.0,445120.0,Y,05/17/2010,05/15/2010,40,32.785527888134,-96.756310312053,Match,Exact
17523093270,"MADERA-PAAN, INC.",1405 MARTIN LUTHER KING JR BLVD,DALLAS,TX,75215,57,CT,1,BIG D CUTRATE BEER & WINE,1405 MARTIN LUTHER KING JR BLVD,DALLAS,TX,75215,57.0,445310.0,Y,01/13/1990,01/01/1990,41,32.759588899155,-96.779758275348,Match,Exact
32063533080,TEAM BAILEY LLC,7720 WINDSOR DR,ALLENTOWN,PA,18106,0,CL,5,DOMINO'S #6934,518 W ARAPAHO RD STE B103,RICHARDSON,TX,75080,57.0,445299.0,Y,12/13/2017,01/08/2018,42,32.961510474216,-96.735408594202,Match,Exact
32090671267,SARAV GROUP LLC,6700 SLEEPY RIVER ST,MCKINNEY,TX,75070,43,CL,2,CREAMISTRY,5250 N OCONNOR BLVD STE 140,IRVING,TX,75039,57.0,445299.0,Y,07/28/2023,07/28/2023,43,32.869881996127,-96.938674074844,Match,Non_Exact
32081168026,LOSING FRIENDS AND FINDING PEACE INC,11306 LYNDON B JOHNSON FWY STE 100,DALLAS,TX,75238,57,CT,1,THE CORNER SPOT,11306 LYNDON B JOHNSON FWY STE 100,DALLAS,TX,75238,57.0,445120.0,Y,10/19/2021,11/01/2021,44,32.878564489602,-96.689439911806,Match,Exact
32055886785,"MACARTHUR IRVING GROCERY, LLC",3700 25TH AVE FRNT A,SCHILLER PARK,IL,60176,16,CI,1,PATEL BROTHERS IRVING 2,8151 WALTON BLVD,IRVING,TX,75063,57.0,445110.0,Y,07/21/2015,08/01/2015,45,,,No_Match,
32009285167,MARIA L RODRIGUEZ,2210 ELMWOOD BLVD,DALLAS,TX,75224,57,IS,7,LA CAMPESINA,712 S WALTON WALKER BLVD STE 1-D,DALLAS,TX,75211,57.0,445292.0,Y,09/25/2024,07/01/2006,46,32.750682145297,-96.920244386608,Match,Non_Exact
32073842455,"SINGH AND SONS INVESTMENTS, LLC",3629 HANOVER CT,THE COLONY,TX,75056,61,CL,1,BALCH SPRINGS LIQUOR ZONE,1820 W BRUTON RD,BALCH SPRINGS,TX,75180,57.0,445310.0,Y,05/19/2020,06/01/2020,47,32.748513209009,-96.626565578631,Match,Exact
32069368218,"LMMM DALLAS #3, LTD.",8830 LONG POINT RD STE 700,HOUSTON,TX,77055,101,PL,1,LA MICHOACANA MEAT MARKET,2441 W WALNUT ST STE 225,GARLAND,TX,75042,57.0,445110.0,Y,10/03/2019,12/01/2019,48,32.916420451999,-96.664518027445,Match,Exact
32040447735,TOM & ANH LE CORP.,3010 RUSSELL RD,ARLINGTON,TX,76001,220,CT,1,SONNY'S LIQUOR,2450 WALNUT HILL LN,DALLAS,TX,75229,57.0,445310.0,Y,10/23/2009,12/01/2009,49,32.880930878726,-96.896482669308,Match,Exact
32101430521,SHABAD LLC,117 S CARROLL AVE,DALLAS,TX,75226,57,CL,1,BIG JIM DISCOUNT LIQUOR,117 S CARROLL AVE,DALLAS,TX,75226,57.0,445310.0,Y,08/18/2025,08/20/2025,50,32.791088263127,-96.767095747407,Match,Exact
32093101692,ASA 2024 LLC,3532 TREETOP DR,EULESS,TX,76040,220,CL,1,SHOP AND GO,1900 N HALL ST,DALLAS,TX,75204,57.0,445120.0,Y,01/23/2024,02/01/2024,51,32.797083256121,-96.790966785408,Match,Non_Exact
32042803174,ORCHARD AT THE OFFICE LLC,797 N GROVE RD STE 105,RICHARDSON,TX,75081,57,CL,1,ORCHARD AT THE OFFICE,797 N GROVE RD STE 105,RICHARDSON,TX,75081,57.0,445299.0,Y,07/24/2023,05/01/2020,52,32.959279244649,-96.718623185212,Match,Exact
17106365988,QUALITY LICENSING CORP.,508 SW 8TH ST,BENTONVILLE,AR,72712,0,CT,243,QUALITY LICENSING CORP (STORE# 3225),2501 LAKEVIEW PKWY,ROWLETT,TX,75088,57.0,445310.0,Y,05/20/2004,06/01/2004,53,,,No_Match,
14312832968,"MORAN FOODS, LLC",400 NORTHWEST PLAZA DR,SAINT ANN,MO,63074,0,CI,78,SAVE-A-LOT #752,2611 S LANCASTER RD,DALLAS,TX,75216,57.0,445110.0,Y,02/25/2009,02/16/2009,54,32.716732080961,-96.804624746015,Match,Exact
32100221897,LYAN ASIAN MARKET LLC,4413 W WALNUT ST STE 309,GARLAND,TX,75042,57,CL,1,LYAN ASIAN MARKET & RESTAURANT,4413 W WALNUT ST STE 309,GARLAND,TX,75042,57.0,445110.0,Y,08/07/2025,10/13/2025,55,32.916698644326,-96.700561996682,Match,Exact
32049867743,M& Z BUSINESS INVESTMENT LLC,5716 EAGLEBEND DR,RICHARDSON,TX,75082,43,CL,1,SMART-MART C-STORE,3150 E LEDBETTER DR,DALLAS,TX,75216,57.0,445120.0,Y,01/25/2024,03/15/2013,56,32.695740426264,-96.768467835446,Match,Exact
32046375583,400 SLBW LLC,"460 N LAMAR ST, STE#300",DALLAS,TX,75202,57,CL,3,STAR LIQUOR BEER & WINE,460 N LAMAR ST # 300,DALLAS,TX,75202,57.0,445310.0,Y,04/04/2014,09/15/2014,57,32.781703622844,-96.804964493548,Match,Exact
32063533080,TEAM BAILEY LLC,7720 WINDSOR DR,ALLENTOWN,PA,18106,0,CL,23,DOMINO'S #6930,6451 RIVERSIDE DR,IRVING,TX,75039,57.0,445299.0,Y,08/20/2018,07/09/2018,58,32.897511645472,-96.939132144645,Match,Exact
32068804197,"FIRESIDE PROPERTY OG, LLC",1410 ASHVIEW CIR,DALLAS,TX,75217,57,CL,1,ENCANTO MARKET AND COCINA,8560 FIRESIDE DR,DALLAS,TX,75217,57.0,445230.0,Y,10/22/2021,12/01/2021,59,32.697845977295,-96.672199126152,Match,Exact
32037759795,VU AND HU CORPORATION,2215 S MARSALIS AVE,DALLAS,TX,75216,57,CT,1,FOOD-RITE MARKET,2215 S MARSALIS AVE,DALLAS,TX,75216,57.0,445110.0,Y,09/17/2008,10/01/2008,60,32.721236634864,-96.814617577707,Match,Exact
32069897281,1214 BPH PARTNERS LLC,460 N LAMAR ST STE 300,DALLAS,TX,75202,57,CL,1,"CHEERS LIQUOR, BEER & WINE",5460 LEMMON AVE,DALLAS,TX,75209,57.0,445310.0,Y,05/07/2019,07/01/2019,61,32.827962271432,-96.823988815824,Match,Exact
17606613929,"RUVALCABA MEAT MARKET, LTD.",PO BOX 55009,HOUSTON,TX,77255,101,PL,1,LA MICHOACANA MEAT MARKET DALLAS #9,1506 S BUCKNER BLVD,DALLAS,TX,75217,57.0,445210.0,Y,03/21/2011,03/01/2001,62,32.738017552344,-96.682764891368,Match,Non_Exact
17515349359,"YATES GROUP, INC.",2015 GALLERIA OAKS DR,TEXARKANA,TX,75503,19,CT,357,E-Z MART #5812,1202 E INTERSTATE 30,GARLAND,TX,75043,57.0,445120.0,Y,07/11/2019,05/01/2019,63,,,No_Match,
32063533080,TEAM BAILEY LLC,7720 WINDSOR DR,ALLENTOWN,PA,18106,0,CL,17,DOMINO'S #9288,1133 N ZANG BLVD STE 105,DALLAS,TX,75203,57.0,445299.0,Y,12/13/2017,01/08/2018,64,32.756780719516,-96.822625357391,Match,Exact
17508732769,RANDALL'S FOOD & DRUGS LP,PO BOX 29096 C/O MS 6531,PHOENIX,AZ,85038,0,PF,173,TOM THUMB #1783 FUEL STATION,2601 ARAPAHO RD,GARLAND,TX,75044,57.0,445110.0,Y,06/01/2004,05/24/2004,65,32.95964620693,-96.664481787932,Match,Exact
32068072829,"JENIN TRADING, LLC.",1308 E BEAR CREEK RD STE 270,GLENN HEIGHTS,TX,75154,57,CL,1,TOBACCO HEIGHT,1308 E BEAR CREEK RD STE 270,GLENN HEIGHTS,TX,75154,57.0,445120.0,Y,08/25/2018,10/01/2018,66,32.560299009916,-96.82486781351,Match,Exact
32036599960,SAMIA OMER,1551 E SPRING VALLEY RD STE 135,RICHARDSON,TX,75081,57,IS,2,A - Z GROCERY,1551 E SPRING VALLEY RD STE 135,RICHARDSON,TX,75081,57.0,445120.0,Y,11/07/2012,12/15/2012,67,32.938633778081,-96.697557322302,Match,Exact
17513185730,"GOODY GOODY LIQUOR, INC.",10370 OLYMPIC DR,DALLAS,TX,75220,57,CT,5,GOODY GOODY LIQUOR INC,7124 GREENVILLE AVE,DALLAS,TX,75231,57.0,445310.0,Y,10/25/1983,11/01/1983,68,32.87421670817,-96.762488758261,Match,Exact
32055604055,"LMMM DALLAS #42, LTD.",PO BOX 55009,HOUSTON,TX,77255,101,PL,1,LA MICHOACANA MEAT MARKET,1109 E HIGHWAY 67,DUNCANVILLE,TX,75137,57.0,445110.0,Y,12/02/2015,02/28/2016,69,,,No_Match,
32040690227,"YMRT, LLC",4209 WORDSWORTH CT,GARLAND,TX,75043,57,CL,1,7-ELEVEN CONVENIENCE STORE #27441A,1803 N GALLOWAY AVE,MESQUITE,TX,75149,57.0,445110.0,Y,11/20/2009,11/20/2009,70,32.786773438492,-96.606132681869,Match,Exact
32044944315,"MIWON, INC",3724 SAMUELL BLVD,DALLAS,TX,75228,57,CT,1,JOHN'S BEST BUY LIQUOR,3724 SAMUELL BLVD,DALLAS,TX,75228,57.0,445310.0,Y,10/13/2016,09/15/2011,71,32.792897839796,-96.730868977126,Match,Exact
32076070740,SAI SHEENA INC,2413 TOP RAIL LN,SOUTHLAKE,TX,76092,220,CT,2,RED BEER AND WINE,4218 W LOVERS LN,DALLAS,TX,75209,57.0,445120.0,Y,12/08/2021,12/15/2021,72,32.851105400586,-96.838229194859,Match,Exact
17418740332,"FIESTA MART, L.L.C.",600 CITADEL DR,COMMERCE,CA,90040,0,CL,123,FIESTA MART # 74,11520 JUPITER RD,DALLAS,TX,75218,57.0,445110.0,Y,08/12/2014,09/01/2014,73,,,No_Match,
32063533080,TEAM BAILEY LLC,7720 WINDSOR DR,ALLENTOWN,PA,18106,0,CL,24,DOMINO'S #6986,940 N RIVERFRONT BLVD,DALLAS,TX,75207,57.0,445299.0,Y,12/05/2018,12/17/2018,74,,,No_Match,
32053695907,JENTIK GLOBAL INC,501 W DAVIS ST,DALLAS,TX,75208,57,CT,1,SEVEN MART FOOD STORE,501 W DAVIS ST,DALLAS,TX,75208,57.0,445120.0,Y,04/14/2014,05/01/2014,75,32.749503565673,-96.83039009342,Match,Exact
17605982234,"ROHAIL ENTERPRISES, INC.",11503 TARVIE PATH,RICHMOND,TX,77407,79,CT,4,HAMPTON SHELL,509 N HAMPTON RD,DALLAS,TX,75208,57.0,445120.0,Y,04/10/2015,05/09/2015,76,32.750167352412,-96.856911579143,Match,Exact
32065935309,SUPER SUNDRIES LLC,2132 CREEKBLUFF CT,CARROLLTON,TX,75010,61,CL,1,FOUNTAIN PLACE SUNDRY SHOP,1445 ROSS AVE STE B101,DALLAS,TX,75202,57.0,445120.0,Y,04/07/2018,06/01/2018,77,32.78440136339,-96.802355001156,Match,Exact
17529675773,"D & M BAKERY, INC.",117 S CENTRAL EXPY,RICHARDSON,TX,75080,57,CT,1,MARIA'S BAKERY,117 S CENTRAL EXPY,RICHARDSON,TX,75080,57.0,445000.0,Y,02/12/2002,01/01/2002,78,32.950103539838,-96.734466887018,Match,Exact
17517337592,"CLOUD-BOYETTE PRINTING, INC.",2232 FM 90,MABANK,TX,75147,129,CT,7,CLOUD-BOYETTE PRINTING INC,606 VALENCIA ST,DALLAS,TX,75223,57.0,445110.0,Y,04/24/2007,06/01/2007,79,32.803976531457,-96.74518467348,Match,Exact
17526256973,Y & J LEE CORPORATION,11445 EMERALD ST STE 112,DALLAS,TX,75229,57,CT,1,FRIENDLY LIQUOR,5431 BOTHAM JEAN BLVD,DALLAS,TX,75215,57.0,445310.0,Y,01/22/2014,01/01/1996,80,,,No_Match,
17527541191,"CHARMSTONE, CORP.",4903 S LANCASTER RD,DALLAS,TX,75216,57,CT,1,AUTRY'S GROCERY STORE,4903 S LANCASTER RD,DALLAS,TX,75216,57.0,445120.0,Y,03/25/1998,04/01/1998,81,32.688706820506,-96.790968191499,Match,Exact
32063622917,HAMRA PETROLEUM LLC,1237 SOUTHRIDGE CT STE 207,HURST,TX,76053,220,CL,2,BEAR CREEK SHELL,1701 S BECKLEY RD,GLENN HEIGHTS,TX,75154,57.0,445120.0,Y,08/08/2018,09/01/2018,82,32.558402063171,-96.822909038438,Match,Exact
32068945073,AMAR WALIA INVESTMENT INC,519 BELLAH DR,IRVING,TX,75062,57,CT,1,AMAR WALIA INVESTMENT INC,2800 S BECKLEY AVE,DALLAS,TX,75224,57.0,445120.0,Y,05/09/2019,05/08/2019,83,32.713100500812,-96.822892451616,Match,Exact
17513202006,"JERRY'S SUPERMARKETS, INC.",532 W JEFFERSON BLVD,DALLAS,TX,75208,57,CT,7,JERRYS SUPERMARKET #3,532 W JEFFERSON BLVD,DALLAS,TX,75208,57.0,445110.0,Y,03/21/1983,03/09/1983,84,32.743088975509,-96.830842374376,Match,Exact
32040015458,J. DELAUGHTER L.L.C.,500 W KIEST BLVD,DALLAS,TX,75224,57,CL,1,KIEST BOULVARD SHELL,500 W KIEST BLVD,DALLAS,TX,75224,57.0,445120.0,Y,08/27/2009,09/15/2009,85,,,No_Match,
32063533080,TEAM BAILEY LLC,7720 WINDSOR DR,ALLENTOWN,PA,18106,0,CL,21,DOMINO'S #6911,6045 SHERRY LN,DALLAS,TX,75225,57.0,445299.0,Y,12/13/2017,01/08/2018,86,32.862219543384,-96.807665864733,Match,Exact
32072560108,K&K TEXAS INC,11445 EMERALD ST STE 112,DALLAS,TX,75229,57,CT,1,SHIN CHON MARKET & FOODCOURT,11422 HARRY HINES BLVD STE 210,DALLAS,TX,75229,57.0,445110.0,Y,04/09/2020,04/15/2020,87,32.896695547128,-96.891490994987,Match,Exact
32019858458,"SYJK ENTERPRISES, INC.",3044 OLD DENTON RD STE 300,CARROLLTON,TX,75007,61,CT,1,SUPREME DONUTS,6909 ROWLETT RD STE 104,ROWLETT,TX,75089,57.0,445299.0,Y,06/07/2006,07/01/2006,88,32.92157909213,-96.578259143687,Match,Exact
32087252873,WHITE GINGER INVESTMENTS LLC,1210 SPANISH MOSS DR,GARLAND,TX,75040,57,CL,2,CORNER STORE,2434 BELT LINE RD,GARLAND,TX,75044,57.0,445110.0,Y,09/06/2024,09/01/2024,89,32.944697339322,-96.663906558426,Match,Exact
32014546652,MANUELA M CARDENAS,10312 BLACK FOREST CT,FORT WORTH,TX,76140,220,IS,1,THE CANDY SHACK,10788 HARRY HINES BLVD STE A12,DALLAS,TX,75220,57.0,445292.0,Y,03/08/2004,03/08/2004,90,32.873676154165,-96.883525911942,Match,Exact
32063533080,TEAM BAILEY LLC,7720 WINDSOR DR,ALLENTOWN,PA,18106,0,CL,15,DOMINO'S #6823,13410 PRESTON RD STE A,DALLAS,TX,75240,57.0,445299.0,Y,12/13/2017,01/08/2018,91,32.93107011079,-96.803491755052,Match,Non_Exact
32062986727,DSJF ENTERPRISE LLC,3824 BALDOMERA ST,FLOWER MOUND,TX,75022,61,CL,2,JERSEY MIKES SUBS,7170 SKILLMAN ST STE 140,DALLAS,TX,75231,57.0,445210.0,Y,09/12/2017,11/15/2017,92,32.877134197939,-96.73474772176,Match,Exact
32020223395,ALDI (TEXAS) L.L.C.,2500 WESTCOURT RD,DENTON,TX,76207,61,CL,35,ALDI (TEXAS) L.L.C. # 50,2505 FORT WORTH AVE,DALLAS,TX,75211,57.0,445110.0,Y,02/03/2011,03/01/2011,93,32.759326255066,-96.862692805017,Match,Exact
32052198838,ABR & MM LLC,1919 BRYAN ST STE 102,DALLAS,TX,75201,57,CL,1,7-ELEVEN CONVENIENCE STORE #36104A,1919 BRYAN ST STE 102,DALLAS,TX,75201,57.0,445120.0,Y,11/04/2013,11/01/2013,94,32.784066504639,-96.797382914347,Match,Exact
32058918577,SAVANNAH'S FRESH MEAT MARKET LLC,4550 GUS THOMASSON RD STE 62,MESQUITE,TX,75150,57,CL,2,SAVANNAH FRESH MEAT AFRICAN MARKET,4550 GUS THOMASSON RD STE 62,MESQUITE,TX,75150,57.0,445110.0,Y,02/16/2024,01/01/2024,95,32.825407635351,-96.648141225005,Match,Exact
32080333779,FRESH DINING CONCEPTS LLC,1600 PONCE DE LEON BLVD FL 10,CORAL GABLES,FL,33134,0,CI,10,JAMBA JUICE,5923 GREENVILLE AVE,DALLAS,TX,75206,57.0,445299.0,Y,08/31/2022,10/01/2022,96,32.857407745991,-96.768686644534,Match,Exact
32089449121,J.J.K. PARTNERSHIP LLC,6804 CANYON MEADOW DR,SACHSE,TX,75048,57,CL,1,WATER PROVISIONS 2 GO,842 BELT LINE RD,GARLAND,TX,75040,57.0,445120.0,Y,05/25/2023,05/02/2023,97,32.940047709889,-96.639299731678,Match,Exact
17513185730,"GOODY GOODY LIQUOR, INC.",10370 OLYMPIC DR,DALLAS,TX,75220,57,CT,25,GOODY GOODY LIQUOR INC,3316 OAK LAWN AVE,DALLAS,TX,75219,57.0,445310.0,Y,05/24/2004,06/15/2004,98,32.810211726245,-96.807465831827,Match,Exact
17106365988,QUALITY LICENSING CORP.,508 SW 8TH ST,BENTONVILLE,AR,72712,0,CT,783,QUALITY LICENSING CORP STORE # 5824,1951 MILITARY PKWY,MESQUITE,TX,75149,57.0,445310.0,Y,01/30/2017,04/30/2017,99,32.768200575686,-96.62843898066,Match,Exact
32063533080,TEAM BAILEY LLC,7720 WINDSOR DR,ALLENTOWN,PA,18106,0,CL,19,DOMINO'S #6976,3305 W WALNUT HILL LN,IRVING,TX,75038,57.0,445299.0,Y,12/13/2017,01/08/2018,100,32.865491592641,-96.989109407916,Match,Exact
32054918654,"ROAS, INC",1630 VALWOOD PKWY STE 114,CARROLLTON,TX,75006,57,CT,1,QUICK SHOP,1630 VALWOOD PKWY STE 114,CARROLLTON,TX,75006,57.0,445120.0,Y,09/02/2014,10/01/2014,101,,,No_Match,
17515998205,"SHERO ENTERPRISES, INC.",327 CADIZ ST,DALLAS,TX,75207,57,CT,7,RIVER CUT RATE LIQUORS,327 S CADIZ,DALLAS,TX,75207,57.0,445310.0,Y,03/31/1988,02/01/1988,102,32.767270466218,-96.802784275707,Match,Non_Exact
17606039679,"RANDALL'S BEVERAGE COMPANY, INC.",PO BOX 29096,PHOENIX,AZ,85038,0,CT,172,RANDALL'S #3650,14999 PRESTON RD,DALLAS,TX,75254,57.0,445110.0,Y,01/18/2011,12/01/2010,103,32.95362439182,-96.804171271215,Match,Exact
18002046193,"EL AHORRO SUPERMARKET #12, LLC",8830 LONG POINT RD STE 600,HOUSTON,TX,77055,101,CL,2,LA MICHOACANA SUPERMARKET #18,209 S ROGERS RD,IRVING,TX,75060,57.0,445110.0,Y,09/05/2024,09/01/2024,104,32.814029071228,-96.963534893106,Match,Exact
13002189754,"M. CACERES ENTERPRISES, INC.",3720 WALNUT HILL LN STE 109,DALLAS,TX,75229,57,CT,2,TIENDA SANTA ROSA #2,2439 VALWOOD PKWY,FARMERS BRANCH,TX,75234,57.0,445120.0,Y,02/19/2004,01/01/2004,105,32.93876453291,-96.89900965015,Match,Exact
32046306752,MELANIE MICHELLE IRANI,1045 MAJORS DR,MESQUITE,TX,75149,57,IS,4,CAKES BY MEL,1045 MAJORS DR,MESQUITE,TX,75149,57.0,445291.0,Y,09/12/2017,09/23/2017,106,32.75499759264,-96.604397254654,Match,Exact
32020223395,ALDI (TEXAS) L.L.C.,2500 WESTCOURT RD,DENTON,TX,76207,61,CL,8,ALDI (TEXAS) L.L.C. # 54,1601 NORTHWEST HWY,GARLAND,TX,75041,57.0,445110.0,Y,12/10/2009,03/15/2010,107,,,No_Match,
32074580310,"LEANING SIGN LIQUOR, LLC",406 N CARRIER PKWY,GRAND PRAIRIE,TX,75050,57,CL,1,"LEANING SIGN LIQUOR, LLC",406 N CARRIER PKWY,GRAND PRAIRIE,TX,75050,57.0,445310.0,Y,10/23/2024,08/15/2020,108,32.744707019627,-97.016564573145,Match,Exact
32044783705,ORITAS INC,7802 STRAITS DR,ROWLETT,TX,75088,57,CT,2,TACON GANAS,11453 HARRY HINES BLVD STE 100,DALLAS,TX,75229,57.0,445120.0,Y,12/28/2023,01/01/2024,109,32.898214746349,-96.892327471455,Match,Exact
32079900695,ROCHELLE BUSINESS LLC,1700 LOMAR DR,CARROLLTON,TX,75007,61,CL,1,XPRESS LIQUOR,2121 W ROCHELLE RD STE 105,IRVING,TX,75062,57.0,445310.0,Y,07/16/2021,08/01/2021,110,32.842266752805,-96.972933879706,Match,Exact
14312832968,"MORAN FOODS, LLC",400 NORTHWEST PLAZA DR,SAINT ANN,MO,63074,0,CI,79,SAVE-A-LOT #753,2627 W JEFFERSON BLVD,DALLAS,TX,75211,57.0,445110.0,Y,10/07/2009,10/01/2009,111,32.748184708976,-96.861068262088,Match,Exact
32068181638,NURSERY CORNER FOOD STORE LLC.,906 E SHADY GROVE RD,IRVING,TX,75060,57,CL,1,GOPHER MART,906 E SHADY GROVE RD,IRVING,TX,75060,57.0,445120.0,Y,06/27/2019,09/24/2019,112,32.800922969085,-96.935623193291,Match,Exact
12714888810,RIAJI CORPORATION,601 HARBOR LN,PLANO,TX,75074,43,CT,2,MR J FOOD STORE,906 HIGHWAY 66,GARLAND,TX,75040,57.0,445120.0,Y,06/07/2012,06/15/2012,113,32.907907206089,-96.620887375769,Match,Exact
32056385548,FELEKEHAILU 21 LLC,9501 FOREST LN,DALLAS,TX,75243,57,CL,1,7-ELEVEN CONVENIENCE STORE #35394B,9501 FOREST LN,DALLAS,TX,75243,57.0,445120.0,Y,02/18/2015,03/30/2015,114,32.909288772172,-96.731185344996,Match,Exact
32063533080,TEAM BAILEY LLC,7720 WINDSOR DR,ALLENTOWN,PA,18106,0,CL,25,DOMINO'S 6919,495 W ILLINOIS AVE,DALLAS,TX,75224,57.0,445299.0,Y,12/05/2018,12/21/2018,115,32.720526635615,-96.828532889654,Match,Exact
12057438777,"DS SERVICES OF AMERICA, INC.",1150 ASSEMBLY DR STE 800,TAMPA,FL,33607,0,CF,6,SPARKLETTS,3405 HIGH PRAIRIE RD,GRAND PRAIRIE,TX,75050,57.0,445299.0,Y,01/10/2007,12/27/2006,116,32.809425171427,-97.026627490333,Match,Exact
14312832968,"MORAN FOODS, LLC",400 NORTHWEST PLAZA DR,SAINT ANN,MO,63074,0,CI,81,SAVE-A-LOT #756,1423B N BELT LINE RD,IRVING,TX,75061,57.0,445110.0,Y,10/20/2010,11/11/2010,117,32.829686847928,-96.993837221996,Match,Non_Exact
17606039679,"RANDALL'S BEVERAGE COMPANY, INC.",PO BOX 29096,PHOENIX,AZ,85038,0,CT,152,TOM THUMB #3621,4010 N MACARTHUR BLVD,IRVING,TX,75038,57.0,445110.0,Y,11/21/2008,12/15/2008,118,,,No_Match,
32091449697,SUMUKHA HOLDINGS LLC,635 W CAMPBELL RD STE 200,RICHARDSON,TX,75080,57,CL,1,DOC'S FOOD STORES,635 W CAMPBELL RD STE 200,RICHARDSON,TX,75080,57.0,445120.0,Y,09/26/2023,09/29/2023,119,32.978015281625,-96.741045232297,Match,Exact
17523915340,"BIG LEE, INCORPORATED",9508 WEBB CHAPEL RD STE 100,DALLAS,TX,75220,57,CT,2,"VILLAGE LIQUOR, BEER AND WINE",9508 WEBB CHAPEL RD STE 100,DALLAS,TX,75220,57.0,445310.0,Y,12/17/2012,02/01/2013,120,,,No_Match,
14312832968,"MORAN FOODS, LLC",400 NORTHWEST PLAZA DR,SAINT ANN,MO,63074,0,CI,80,SAVE-A-LOT #754,2506 S BELT LINE RD,GRAND PRAIRIE,TX,75052,57.0,445110.0,Y,07/30/2010,08/01/2010,121,32.709148188405,-96.994112336099,Match,Exact
32059913577,BEZUF LLC,PO BOX 219088 ATTN:LICENSING,DALLAS,TX,75221,57,CL,1,7-ELEVEN CONVENIENCE STORE #35404A,447 E HIGHWAY 67,DUNCANVILLE,TX,75137,57.0,445120.0,Y,04/21/2016,07/13/2016,122,32.63160662568,-96.902293425456,Match,Exact
32020223395,ALDI (TEXAS) L.L.C.,2500 WESTCOURT RD,DENTON,TX,76207,61,CL,15,ALDI (TEXAS) L.L.C. #58,2926 N BELT LINE RD,IRVING,TX,75062,57.0,445110.0,Y,12/15/2009,04/01/2010,123,32.845475033243,-96.992261144452,Match,Exact
32037792168,SHEMIN INC.,2584 W JEFFERSON ST,GRAND PRAIRIE,TX,75051,220,CT,2,SUNNY FOOD MART #3,489 E FM 1382,CEDAR HILL,TX,75104,57.0,445120.0,Y,04/25/2019,06/01/2019,124,32.592021437709,-96.936964469228,Match,Exact
32092219347,ACHAL CORPORATION,2210 W MAIN ST STE 102,GRAND PRAIRIE,TX,75050,57,CT,1,LIQUOR PLUS,2210 W MAIN ST STE 102,GRAND PRAIRIE,TX,75050,57.0,445310.0,Y,01/19/2024,01/01/2024,125,32.739957972127,-97.03465663418,Match,Exact
32084701914,BOOM BOOM CANDY STORE LLC,1530 AVENUE B,GRAND PRAIRIE,TX,75051,57,CL,1,BOOM BOOM CANDY STORE,2042 TOWN EAST MALL,MESQUITE,TX,75150,57.0,445120.0,Y,03/05/2025,01/01/2023,126,32.811444062972,-96.632164913631,Match,Non_Exact
32033857106,SALVADOR RUVALCABA JIMENEZ,9061 COUNTY ROAD 4116,KAUFMAN,TX,75142,129,IS,3,LA CHAPALITA,210 N KAUFMAN ST STE C,SEAGOVILLE,TX,75159,57.0,445299.0,Y,03/18/2024,04/05/2013,127,32.641628032977,-96.541515523592,Match,Non_Exact
17418740332,"FIESTA MART, L.L.C.",600 CITADEL DR,COMMERCE,CA,90040,0,CL,99,FIESTA MART # 71,3434 W ILLINOIS AVE,DALLAS,TX,75211,57.0,445110.0,Y,08/15/2008,10/01/2008,128,32.720237573964,-96.876437597095,Match,Exact
12717999747,"PROGRESO LMMM DALLAS #30, LLC",PO BOX 55009,HOUSTON,TX,77255,101,CL,1,LA MICHOACANA MEATMARKET DALLAS #30,3380 LOMBARDY LN,DALLAS,TX,75220,57.0,445110.0,Y,02/05/2010,02/08/2010,129,32.866416312998,-96.867488069348,Match,Exact
32033857106,SALVADOR RUVALCABA JIMENEZ,9061 COUNTY ROAD 4116,KAUFMAN,TX,75142,129,IS,2,LA CHAPALITA,12209 LAKE JUNE RD,MESQUITE,TX,75180,57.0,445299.0,Y,03/18/2024,07/01/2010,130,32.734166998828,-96.617059343302,Match,Exact
32061193721,"H MART HARRY HINES, LLC",300 CHUBB AVE,LYNDHURST,NJ,07071,0,CL,1,"H MART HARRY HINES, LLC",2534 ROYAL LN,DALLAS,TX,75229,57.0,445110.0,Y,09/27/2022,12/25/2022,131,32.895881949389,-96.894347555519,Match,Exact
12035496384,"LMMM DALLAS #25, LTD.",PO BOX 55009,HOUSTON,TX,77255,101,PL,1,LA MICHOACANA #25 DALLAS,9850 WALNUT HILL LN STE 224,DALLAS,TX,75238,57.0,445110.0,Y,12/14/2005,12/19/2005,132,32.878803820681,-96.716348198079,Match,Exact
32084264798,NA AND C INVESTMENT INC,4500 LAFITE LN,COLLEYVILLE,TX,76034,220,CT,1,STOP N SHOP #2,7771 GREAT TRINITY FOREST WAY,DALLAS,TX,75217,57.0,445120.0,Y,05/27/2022,06/01/2022,133,32.712582663953,-96.689246468751,Match,Exact
32059802176,KANCHANA MART INC,2404 TOP RAIL LN,SOUTHLAKE,TX,76092,220,CT,1,QUICK MART 108,5329 ROSS AVE,DALLAS,TX,75206,57.0,445120.0,Y,03/08/2016,03/08/2016,134,32.809746352485,-96.772065940771,Match,Exact
32054169902,SUPER DELI NEIGHBORHOOD CORP.,3415 MALCOLM X BLVD,DALLAS,TX,75215,57,CT,1,NEIGHBORHOOD STORE,3415 MALCOLM X BLVD,DALLAS,TX,75215,57.0,445120.0,Y,06/17/2014,06/15/2014,135,32.766234075649,-96.76515957507,Match,Exact
17513202006,"JERRY'S SUPERMARKETS, INC.",532 W JEFFERSON BLVD,DALLAS,TX,75208,57,CT,9,JERRYS SUPER MKTS INC #5,2314 W ILLINOIS AVE,DALLAS,TX,75224,57.0,445110.0,Y,11/13/1989,10/12/1989,136,32.72015806774,-96.856342553572,Match,Exact
32026534498,"VIET TOFU, LLC",3555 W WALNUT ST STE 203,GARLAND,TX,75042,57,CL,1,VIET TOFU,3555 W WALNUT ST STE 203,GARLAND,TX,75042,57.0,445299.0,Y,04/27/2007,04/01/2007,137,,,No_Match,
17525393181,"PASTA PASTA, INC.",4203 LINDBERGH DR,ADDISON,TX,75001,57,CT,1,LA SPIGAS VILLAGE BAKERY,4203 LINDBERGH DR,ADDISON,TX,75001,57.0,445299.0,Y,05/31/1995,05/15/1995,138,32.95815209997,-96.838368186153,Match,Exact
32020744473,CARLOS LOPEZ & ARACELI RAMIREZ,810 S POLK ST,DALLAS,TX,75208,57,PI,2,PALETERIA MEXICO,327 W MOCKINGBIRD LN,DALLAS,TX,75247,57.0,445299.0,Y,03/11/2008,03/11/2008,139,32.804121601027,-96.873767697769,Match,Exact
32033184741,SAFA PETROLEUM INC.,1000 S ROYAL LN,COPPELL,TX,75019,57,CT,1,GATEWAY #17,1000 S ROYAL LANE,COPPELL,TX,75019,57.0,445120.0,Y,07/03/2007,08/01/2007,140,32.944629476738,-97.022233171288,Match,Non_Exact
32070384956,PLEASANT RADIL LLC,3118 W NORTHGATE DR APT 1053,IRVING,TX,75062,57,CL,1,HAPPY MART,1100 E PLEASANT RUN RD STE 133,DESOTO,TX,75115,57.0,445120.0,Y,05/16/2019,08/01/2019,141,32.604093001754,-96.828498964341,Match,Exact
32090671531,CHACHA&CHOPEES LLC,5803 FOXGLOVE LN,DALLAS,TX,75249,57,CL,2,CHACHA&CHOPEES LLC,195 HISTORIC TOWN SQ,LANCASTER,TX,75146,57.0,445292.0,Y,02/07/2024,01/25/2024,142,32.59231118219,-96.755618823096,Match,Exact
32038381896,"LITTLE ZACK, INC.",8101 S POLK ST,DALLAS,TX,75232,57,CT,1,PICK QUICK DELI MART #2,8101 S POLK ST,DALLAS,TX,75232,57.0,445120.0,Y,12/10/2008,01/01/2009,143,32.64931838829,-96.840146486074,Match,Exact
32075747728,SAI SUBARNA INC.,6714 CHRISTINA LN,GARLAND,TX,75043,57,CT,4,ZION FOOD MART,4407 W MOCKINGBIRD LN,DALLAS,TX,75209,57.0,445120.0,Y,03/04/2025,05/01/2024,144,32.836710759199,-96.831092607575,Match,Exact
32010279290,JASMINE & ABID CORPORATION,2000 OLD DENTON RD STE 104,CARROLLTON,TX,75006,57,CT,1,APNA BAZAAR GROCERY & GRILL,2000 OLD DENTON RD STE 104,CARROLLTON,TX,75006,57.0,445110.0,Y,03/18/2003,01/01/2003,145,32.968624650175,-96.911633975077,Match,Exact
32096606002,LAKIESHA L HALL,111 S GREENSTONE LN,DUNCANVILLE,TX,75116,57,IS,1,TAYLOR'S NECESSITIES AND MORE,1505 S EWING AVE,DALLAS,TX,75216,57.0,445120.0,Y,09/04/2024,09/04/2024,146,32.72944114821,-96.811499985927,Match,Exact
17508732769,RANDALL'S FOOD & DRUGS LP,PO BOX 29096 C/O MS 6531,PHOENIX,AZ,85038,0,PF,143,TOM THUMB #1973,7000 SNIDER PLZ,UNIVERSITY PARK,TX,75205,57.0,445110.0,Y,09/20/2001,10/31/2001,147,32.850312780235,-96.787760553324,Match,Non_Exact
32061302512,L N S  BUSINESS INC,9430 LARGA DR STE 101,DALLAS,TX,75220,57,CT,1,ICE HOUSE BEVERAGE #2,9430 LARGA DR STE 101,DALLAS,TX,75220,57.0,445120.0,Y,08/18/2016,09/01/2016,148,32.864284295224,-96.862674741485,Match,Exact
17606039679,"RANDALL'S BEVERAGE COMPANY, INC.",PO BOX 29096,PHOENIX,AZ,85038,0,CT,169,RANDALL'S #3560,8698 SKILLMAN ST,DALLAS,TX,75243,57.0,445110.0,Y,01/18/2011,12/18/2010,149,,,No_Match,
32083734270,DRINK GOOD WINE LLC,3128 WATERSIDE DR,ARLINGTON,TX,76012,220,CL,1,STATE & MAIN MERCHANT,500 MAIN ST STE 2,GARLAND,TX,75040,57.0,445310.0,Y,07/27/2023,09/01/2022,150,32.912613431739,-96.636566844617,Match,Exact
17508732769,RANDALL'S FOOD & DRUGS LP,PO BOX 29096 C/O MS 6531,PHOENIX,AZ,85038,0,PF,81,RANDALL'S FOOD AND DRUG #3597,11920 PRESTON RD,DALLAS,TX,75230,57.0,445110.0,Y,05/15/2001,05/02/2001,151,32.911511642081,-96.803725671079,Match,Exact
13116785307,KROGER TEXAS L.P.,PO BOX 305103,NASHVILLE,TN,37230,0,PF,493,KROGER #689 FUEL CENTER,6037 CAMPBELL RD,DALLAS,TX,75248,57.0,445110.0,Y,01/11/2023,02/17/2023,152,,,No_Match,
19434245650,RASIKMANI CORPORATION,2050 N STEMMONS FWY UNIT 199,DALLAS,TX,75207,57,CT,5,UPTOWN SUNDRY & GIFTS,2101 CEDAR SPRINGS RD STE 160,DALLAS,TX,75201,57.0,445120.0,Y,05/12/2009,08/01/2009,153,32.791429374561,-96.805089310144,Match,Exact
32074885461,A3 GROUP INCORPORATED,1011 CASTROVILLE DR,FORNEY,TX,75126,129,CT,1,THREE AMIGOS,1927 E BELT LINE RD STE 136,CARROLLTON,TX,75006,57.0,445120.0,Y,07/09/2020,07/15/2020,154,32.953745401562,-96.889431093399,Match,Exact
17418740332,"FIESTA MART, L.L.C.",600 CITADEL DR,COMMERCE,CA,90040,0,CL,105,CARNIVAL #77,3460 WEBB CHAPEL EXT,DALLAS,TX,75220,57.0,445110.0,Y,08/15/2008,10/01/2008,155,32.865036184341,-96.864776766333,Match,Exact
32061397132,"ANDY'S FROZEN CUSTARD STORES, LLC",211 E WATER ST,SPRINGFIELD,MO,65806,0,CI,6,"ANDY'S FROZEN CUSTARD STORES, LLC",317 WESTCHASE DR,GRAND PRAIRIE,TX,75052,57.0,445299.0,Y,05/13/2019,06/01/2019,156,32.673302996183,-97.005225849167,Match,Exact
32020866201,SALYAM INCORPORATED,1205 DRAGON BANNER DR,THE COLONY,TX,75056,61,CT,1,ONE STOP FOOD STORE,5520 S HAMPTON RD,DALLAS,TX,75232,57.0,445120.0,Y,10/13/2006,10/12/2006,157,32.679433976123,-96.856875763781,Match,Exact
12612023353,8TH STREET PETROLEUM INC,424 S R L THORNTON FWY,DALLAS,TX,75203,57,CT,1,GATEWAY #25,424 S R L THORNTON FWY,DALLAS,TX,75203,57.0,445120.0,Y,10/26/2007,11/15/2007,158,32.752614133746,-96.808839835497,Match,Exact
17106365988,QUALITY LICENSING CORP.,508 SW 8TH ST,BENTONVILLE,AR,72712,0,CT,456,QUALITY LICENSING CORP #8282,2900 W WHEATLAND RD,DALLAS,TX,75237,57.0,445310.0,Y,12/14/2010,01/01/2011,159,32.647382995296,-96.869675011771,Match,Exact
17528019429,"HERBMART, INC.",PO BOX 328,BIG SANDY,TX,75755,230,CT,9,"HERBMART, INC.",4781 N BELT LINE RD,MESQUITE,TX,75150,57.0,445110.0,Y,04/09/2016,04/13/2016,160,32.831494011566,-96.595929212837,Match,Non_Exact
32043577025,YUJH INVESTMENT LLC,6521 JEANE ST,DALLAS,TX,75217,57,CL,1,C & P GROCERY,6521 JEANE ST,DALLAS,TX,75217,57.0,445120.0,Y,12/13/2012,12/15/2012,161,32.727120564683,-96.708359568701,Match,Exact
32017281356,"TEXAS ICE VENDING, LLC",4100 ELDORADO PKWY STE 100,MCKINNEY,TX,75070,43,CL,19,"TEXAS ICE VENDING, LLC",6500 SKILLMAN ST,DALLAS,TX,75231,57.0,445299.0,Y,09/10/2018,09/01/2018,162,,,No_Match,
32046318302,"EMERLASS, LLC",115 E PEARL ST,GRANBURY,TX,76048,111,CL,4,EIGHTEEN NINETY MARKETPLACE,2642 MAIN ST STE 150,DALLAS,TX,75226,57.0,445299.0,Y,11/10/2016,12/01/2016,163,32.783515546984,-96.785394577171,Match,Exact
32017281356,"TEXAS ICE VENDING, LLC",4100 ELDORADO PKWY STE 100,MCKINNEY,TX,75070,43,CL,20,TEXAS ICE VENDING,12175 GARLAND RD,DALLAS,TX,75218,57.0,445299.0,Y,09/10/2018,09/01/2018,164,32.865421008929,-96.670012875355,Match,Exact
32073068374,SUKRITI SAI INC,3225 FOREST LN,GARLAND,TX,75042,57,CT,1,FATHER & SON TOBACCO STORE,3225 FOREST LN,GARLAND,TX,75042,57.0,445120.0,Y,01/18/2020,02/01/2020,165,32.909352216715,-96.678818663672,Match,Exact
32033857106,SALVADOR RUVALCABA JIMENEZ,9061 COUNTY ROAD 4116,KAUFMAN,TX,75142,129,IS,6,LA CHAPALITA,2702 S BUCKNER BLVD STE 130,DALLAS,TX,75227,57.0,445299.0,Y,09/03/2024,10/01/2024,166,32.757803966367,-96.682698875498,Match,Non_Exact
32056953766,DALLAS TRADER'S ZONE LLC,10560 CHURCH RD,DALLAS,TX,75238,57,CL,1,ONE STOP FOOD & BEVERAGES,10560 NEW CHURCH RD,DALLAS,TX,75238,57.0,445120.0,Y,05/22/2015,06/01/2015,167,32.885588401269,-96.703094575635,Match,Exact
32018427552,"EL CERRITO, INC.",300 E JEFFERSON BLVD,DALLAS,TX,75203,57,CT,2,SUPER MERCADO EL CERRITO,10880 FERGUSON RD,DALLAS,TX,75228,57.0,445110.0,Y,10/29/2010,11/08/2010,168,,,No_Match,
17528053493,"LIEU BROTHERS, INC.",2701 OLD DENTON RD STE 270,CARROLLTON,TX,75007,57,CT,3,KILO BEVERAGES,4215 BOTHAM JEAN BLVD,DALLAS,TX,75215,57.0,445310.0,Y,04/22/2004,05/01/2004,169,,,No_Match,
32084140758,VAN LEEUWEN DALLAS INWOOD LLC,119 N 11TH ST APT 1A,BROOKLYN,NY,11249,0,CI,1,VAN LEEUWEN DALLAS INWOOD LLC,5450 W LOVERS LN STE 130,DALLAS,TX,75209,57.0,445299.0,Y,07/15/2022,08/01/2022,170,,,No_Match,
32052921502,"DUC HUONG GIO CHA, LLC",4033 EDGEWATER CT,RICHARDSON,TX,75082,57,CL,1,DUC HUONG GIO CHA,3347 W WALNUT ST # 268,GARLAND,TX,75042,57.0,445299.0,Y,02/24/2014,01/01/2014,171,32.916986822144,-96.680624664156,Match,Exact
32039926822,"ALTAQWA BAKERY, INC",2411 N GALLOWAY AVE STE 125,MESQUITE,TX,75150,57,CT,1,ALTAQWA BAKERY,2411 N GALLOWAY AVE STE 125,MESQUITE,TX,75150,57.0,445291.0,Y,09/28/2009,09/28/2009,172,32.797519841302,-96.611942806088,Match,Exact
32042158066,"AENS, INC.",2521 W AIRPORT FWY,IRVING,TX,75062,57,CT,1,INDIA IMPORT SUPERMARKET,2521 W AIRPORT FWY,IRVING,TX,75062,57.0,445110.0,Y,07/14/2010,07/15/2010,173,32.837399567115,-96.979539761292,Match,Exact
32092270225,KUM & ROY INC,500 ROCKCREEK DR,DESOTO,TX,75115,57,CT,1,MY BEER STORE #6,3404 S LANCASTER RD,DALLAS,TX,75216,57.0,445310.0,Y,01/24/2024,01/24/2024,174,,,No_Match,
32010159286,YOUNG JOO YOON,2150 N JOSEY LN STE 324,CARROLLTON,TX,75006,57,IS,4,AQUA BELLA,2150 N JOSEY LN STE 324,CARROLLTON,TX,75006,57.0,445299.0,Y,01/23/2003,01/01/2003,175,32.971809464011,-96.889789981301,Match,Exact
17418740332,"FIESTA MART, L.L.C.",600 CITADEL DR,COMMERCE,CA,90040,0,CL,102,FIESTA MART # 74,11445 GARLAND RD,DALLAS,TX,75218,57.0,445110.0,Y,08/15/2008,10/01/2008,176,32.849840580874,-96.682697817528,Match,Exact
32060083535,ELIZABETH CRUZ,4515 ELECTRA ST,DALLAS,TX,75215,57,IS,1,ELIZABETH CRUZ,4515 ELECTRA ST,DALLAS,TX,75215,57.0,445230.0,Y,04/06/2016,04/06/2016,177,32.760795300971,-96.750551822992,Match,Exact
32061193721,"H MART HARRY HINES, LLC",300 CHUBB AVE,LYNDHURST,NJ,07071,0,CL,2,H MART,2534 ROYAL LN,DALLAS,TX,75229,57.0,445110.0,Y,10/23/2024,12/01/2024,178,32.895881949389,-96.894347555519,Match,Exact
32049493847,"THE DEAN'S LIST, LLC",505 AIRLINE DR,COPPELL,TX,75019,57,CL,3,THE DEAN'S LIST,505 AIRLINE DR,COPPELL,TX,75019,57.0,445310.0,Y,09/13/2018,10/01/2018,179,32.943626945146,-97.003482662467,Match,Exact
32047783538,SANJAYA CORPORATION,7272 GASTON AVE,DALLAS,TX,75214,57,CT,1,LION BEVERAGE MART,7272 GASTON AVE,DALLAS,TX,75214,57.0,445120.0,Y,05/10/2012,06/01/2012,180,32.812447444163,-96.731656184753,Match,Exact
32046110840,"SOUTH PARKWAY, LLC",2430 N FIELDER RD,ARLINGTON,TX,76012,220,CL,4,STAR MOMENTZ,13111 N CENTRAL EXPY,DALLAS,TX,75243,57.0,445120.0,Y,02/28/2017,03/01/2017,181,,,No_Match,
32096045136,TERAGRAM VISIONS LLC,700 N PEARL ST # H204,DALLAS,TX,75201,0,CI,1,BLISS IN A BOTTLE,700 N PEARL ST STE H204,DALLAS,TX,75201,57.0,445310.0,Y,10/18/2024,01/15/2025,182,32.78675401249,-96.795841944864,Match,Exact
17508732769,RANDALL'S FOOD & DRUGS LP,PO BOX 29096 C/O MS 6531,PHOENIX,AZ,85038,0,PF,53,RANDALL'S FOOD AND DRUG #2526,39 ARAPAHO VILLAGE,RICHARDSON,TX,75080,57.0,445110.0,Y,05/11/2001,05/02/2001,183,32.962165043667,-96.74931921595,Match,Non_Exact
32071174182,"SMALL BEER WORKS, LLC",1906 S HASKELL AVE,DALLAS,TX,75223,57,CL,1,SMALL BEER WORKS,1906 S HASKELL AVE,DALLAS,TX,75223,57.0,445310.0,Y,07/07/2022,03/01/2020,184,32.783261631681,-96.748017620241,Match,Exact
17513185730,"GOODY GOODY LIQUOR, INC.",10370 OLYMPIC DR,DALLAS,TX,75220,57,CT,2,GOODY GOODY LIQUOR INC,10301 HARRY HINES BLVD,DALLAS,TX,75220,57.0,445310.0,Y,02/18/1975,12/03/1974,185,32.86537905055,-96.881728766212,Match,Exact
32101448416,WISEBOX LLC,1613 SKYLINE DR,GARLAND,TX,75043,57,CL,1,WISEBOX,1613 SKYLINE DR,GARLAND,TX,75043,57.0,445120.0,Y,08/19/2025,08/18/2025,186,32.87198749985,-96.595092744358,Match,Non_Exact
32082940738,PATAN INCORPORATED,6840 WILDERNESS WAY DR,GRAND PRAIRIE,TX,75054,220,CT,1,LIQUOR ISLAND BEER & WINE,1017 FORT WORTH ST STE 600,GRAND PRAIRIE,TX,75050,57.0,445310.0,Y,02/24/2022,03/01/2022,187,32.743191410931,-97.017406098632,Match,Exact
32040536818,"WRC EXPRESS, INC.",PO BOX 38133,DALLAS,TX,75238,57,CT,1,"WRC EXPRESS, INC.",4216 ABRAMS RD,DALLAS,TX,75214,57.0,445299.0,Y,06/14/2010,06/07/2010,188,32.836711585328,-96.75279431905,Match,Exact
12057438777,"DS SERVICES OF AMERICA, INC.",1150 ASSEMBLY DR STE 800,TAMPA,FL,33607,0,CF,16,SPARKLETTS,1340 CENTERVILLE RD,DALLAS,TX,75218,57.0,445299.0,Y,01/10/2007,12/27/2006,189,32.843105307084,-96.687179666008,Match,Exact
17418740332,"FIESTA MART, L.L.C.",600 CITADEL DR,COMMERCE,CA,90040,0,CL,66,FIESTA MART #32,9727 WEBB CHAPEL RD,DALLAS,TX,75220,57.0,445110.0,Y,07/03/1997,08/12/1997,190,32.866123404929,-96.864036566531,Match,Exact
32088824084,GLENNY STEPHENS BAKERY LLC,1827 N GALLOWAY AVE,MESQUITE,TX,75149,57,CL,1,GLENNY STEPHENS BAKERY,1827 N GALLOWAY AVE,MESQUITE,TX,75149,57.0,445291.0,Y,08/22/2025,10/02/2023,191,32.787035635174,-96.606441991967,Match,Exact
32038311356,ZAITOON CORPORATION,10911 DENNIS RD STE 407,DALLAS,TX,75229,57,CT,2,NEW EZ FOOD MART,10911 DENNIS RD STE 407,DALLAS,TX,75229,57.0,445120.0,Y,11/02/2010,11/01/2010,192,32.896873258343,-96.881462444645,Match,Exact
17528749462,"SUPERTARGET LIQUOR OF TEXAS, INC.",PO BOX 9471,MINNEAPOLIS,MN,55440,0,CT,5,TARGET STORE,6419 SKILLMAN ST # T1784,DALLAS,TX,75231,57.0,445310.0,Y,01/11/2001,01/02/2001,193,32.86426940661,-96.745478302612,Match,Non_Exact
32076706178,SAVING LIVES AND SECURING BAGS LLC,2301 DOTY LN,BALCH SPRINGS,TX,75180,57,CL,1,SAVING LIVES AND SECURING BAGS,2301 DOTY LN,BALCH SPRINGS,TX,75180,57.0,445120.0,Y,05/26/2023,05/25/2023,194,32.735797804723,-96.636096121636,Match,Exact
32071304664,TMT DFW LLC,2240 IRVING BLVD,DALLAS,TX,75207,57,CL,1,BIG C FOOD MART,2240 IRVING BLVD,DALLAS,TX,75207,57.0,445120.0,Y,07/13/2019,08/01/2019,195,32.796211677552,-96.834605700012,Match,Exact
32020223395,ALDI (TEXAS) L.L.C.,2500 WESTCOURT RD,DENTON,TX,76207,61,CL,44,ALDI (TEXAS) L.L.C. #63,805 E BELTLINE RD,CEDAR HILL,TX,75104,57.0,445110.0,Y,04/17/2012,05/15/2012,196,32.589959203321,-96.925288975069,Match,Non_Exact
32052886226,CLAUDIA J MONTES,5312 BROOKHOLLOW DR,SACHSE,TX,75048,57,IS,7,CREPES N GO,2007 SATURN RD,GARLAND,TX,75041,57.0,445230.0,Y,11/20/2023,11/01/2023,197,32.8942323287,-96.648312096953,Match,Exact
32081168133,IT BE THE CLOSEST ONES THAT ENVY INC,10190 FOREST LN STE 175,DALLAS,TX,75243,57,CT,1,ELI FOOD MART,10190 FOREST LN STE 175,DALLAS,TX,75243,57.0,445120.0,Y,10/06/2021,11/01/2021,198,32.908967938923,-96.709829313982,Match,Exact
17515721417,"G. E. FOODLAND, INC.",1105 E BELT LINE RD,CARROLLTON,TX,75006,57,CT,10,ELROD'S COST PLUS #2,2025 FORT WORTH AVE,DALLAS,TX,75208,57.0,445110.0,Y,08/30/1989,06/18/1988,199,32.763399715647,-96.85420457663,Match,Exact
32042847262,HEAVEN 786 LLC,9798 FOREST LN,DALLAS,TX,75243,57,CL,3,FOREST LANE MART,9791 FOREST LN,DALLAS,TX,75243,57.0,445120.0,Y,08/07/2013,10/15/2013,200,32.909615461526,-96.71899493254,Match,Exact
32063020427,SY SYSTEMS INC,1231 E PLEASANT RUN RD STE 114,DESOTO,TX,75115,57,CT,1,FAMILY MART,1231 E PLEASANT RUN RD STE 114,DESOTO,TX,75115,57.0,445120.0,Y,03/03/2017,04/01/2017,201,32.604358493556,-96.827482297382,Match,Exact
17528749462,"SUPERTARGET LIQUOR OF TEXAS, INC.",PO BOX 9471,MINNEAPOLIS,MN,55440,0,CT,47,TARGET STORE T-1850,3730 BELT LINE RD,ADDISON,TX,75001,57.0,445310.0,Y,05/12/2004,05/01/2004,202,32.953029006497,-96.854511496344,Match,Exact
17508732769,RANDALL'S FOOD & DRUGS LP,PO BOX 29096 C/O MS 6531,PHOENIX,AZ,85038,0,PF,210,RANDALL'S #3650 FUEL STATION,14949 PRESTON RD,DALLAS,TX,75254,57.0,445110.0,Y,10/16/2009,09/17/2009,203,32.952438608084,-96.803851602602,Match,Exact
17418740332,"FIESTA MART, L.L.C.",600 CITADEL DR,COMMERCE,CA,90040,0,CL,139,FIESTA MARK # 213,1450 W PLEASANT RUN RD STE 200,LANCASTER,TX,75146,57.0,445110.0,Y,08/05/2016,10/16/2016,204,32.604286265283,-96.783624019243,Match,Exact
12022081702,DANNY'S LIQUOR INC.,2001 W NORTHWEST HWY STE 120,DALLAS,TX,75220,57,CT,1,DANNY'S LIQUOR,2001 W NORTHWEST HWY STE 120,DALLAS,TX,75220,57.0,445310.0,Y,01/25/2005,02/01/2005,205,32.867225286171,-96.90776833183,Match,Exact
17427437011,SPEC'S FAMILY CORP.,2410 SMITH ST,HOUSTON,TX,77006,101,CT,295,"SPEC'S LIQUORS, WINES, BEERS & CIGARS, SPEC'S #228",4205 PRESIDENT GEORGE BUSH HWY,SACHSE,TX,75048,57.0,445310.0,Y,02/23/2024,05/01/2024,206,,,No_Match,
32027119646,CESAR B FLORES,3021 LOMBARDY LN STE 104,DALLAS,TX,75220,57,IS,3,7 - ABC BEER TO GO,3021 LOMBARDY LN # 104,DALLAS,TX,75220,57.0,445120.0,Y,11/17/2009,03/01/2009,207,32.866494545494,-96.875095884992,Match,Exact
32065158050,"UNCLE LEE GROCERY, INC.",400 HARMONY WAY,KELLER,TX,76248,220,CT,1,UNCLE LEE GROCERY,3839 DIXON AVE,DALLAS,TX,75210,57.0,445120.0,Y,10/31/2017,11/01/2017,208,32.765005920526,-96.734443901621,Match,Exact
32040768122,"RIE RIE, INC.",12092 FORESTGATE DR,DALLAS,TX,75243,57,CT,4,UNREFINED BAKERY,6464 E NORTHWEST HWY STE 326,DALLAS,TX,75214,57.0,445291.0,Y,03/22/2017,03/27/2017,209,32.8570767754,-96.750513202931,Match,Exact
13002189754,"M. CACERES ENTERPRISES, INC.",3720 WALNUT HILL LN STE 109,DALLAS,TX,75229,57,CT,3,TIENDA SANTA ROSA #3,611 S HAMPTON RD,DALLAS,TX,75208,57.0,445120.0,Y,02/19/2004,01/01/2004,210,32.751510235954,-96.856912606334,Match,Non_Exact
17508732769,RANDALL'S FOOD & DRUGS LP,PO BOX 29096 C/O MS 6531,PHOENIX,AZ,85038,0,PF,243,TOM THUMB 3296,2380 N FIELD ST,DALLAS,TX,75201,57.0,445110.0,Y,01/25/2018,05/01/2018,211,32.789055266683,-96.806826915672,Match,Non_Exact
17529278206,"SHAHRUKH & SHAHZEB, INC.",3002 E MAIN ST,GRAND PRAIRIE,TX,75050,57,CT,5,PRINCE MOTOR CARS,3230 E MAIN ST,GRAND PRAIRIE,TX,75050,57.0,445310.0,Y,08/30/2019,11/01/2019,212,32.749422127749,-96.956596183115,Match,Exact
32094570804,GALLY'S WINE AND SPIRITS LLC,4654 S VERSAILLES AVE,DALLAS,TX,75209,57,CL,1,GALLY'S WINE AND SPIRITS,7047 TWIN HILLS AVE STE 125,DALLAS,TX,75231,57.0,445310.0,Y,04/18/2024,06/01/2024,213,32.874117514347,-96.764579044926,Match,Exact
17106365988,QUALITY LICENSING CORP.,508 SW 8TH ST,BENTONVILLE,AR,72712,0,CT,414,QUALITY LICENSING CORP (STORE #6265),1213 MARKET PL,IRVING,TX,75063,57.0,445310.0,Y,11/04/2008,12/01/2008,214,32.91851840984,-96.963685955028,Match,Exact
17606039679,"RANDALL'S BEVERAGE COMPANY, INC.",PO BOX 29096,PHOENIX,AZ,85038,0,CT,164,TOM THUMB #1540,3757 FOREST LN,DALLAS,TX,75244,57.0,445110.0,Y,10/28/2010,11/01/2010,215,32.909710250613,-96.853306872022,Match,Exact
32053162486,ROSA Y MARTINEZ,3036 SAINT NICHOLAS DR,DALLAS,TX,75233,57,IS,1,TIENDA MARTINEZ,1930 S BECKLEY AVE STE A,DALLAS,TX,75224,57.0,445120.0,Y,02/12/2014,02/14/2014,216,32.724684709107,-96.822744829876,Match,Non_Exact
17528885241,SUNNI'S MARKETING CORP.,132 S CARROLL AVE,DALLAS,TX,75226,57,CT,1,KWIK STOP BEER & WINE 'B',132 S CARROLL AVE,DALLAS,TX,75226,57.0,445310.0,Y,06/07/2016,08/31/2000,217,32.791191115312,-96.767023477045,Match,Exact
17606039679,"RANDALL'S BEVERAGE COMPANY, INC.",PO BOX 29096,PHOENIX,AZ,85038,0,CT,167,RANDALL'S #2544,10455 N CENTRAL EXPY,DALLAS,TX,75231,57.0,445110.0,Y,01/18/2011,12/18/2010,218,32.888774334903,-96.770191047127,Match,Exact
32093171067,CARSON ONE STOP GROUP LLC,1246 E CLARENDON DR,DALLAS,TX,75203,57,CL,1,CARSON ONE STOP GROUP,1246 E CLARENDON DR,DALLAS,TX,75203,57.0,445120.0,Y,02/23/2024,03/01/2024,219,32.746722851406,-96.805341717978,Match,Exact
12043584254,"SUBLETT INVESTMENT COMPANY, INC.",6411 LAKE BLUFF DR,DALLAS,TX,75249,57,CT,4,GP CORNER STORE,595 W PIONEER PKWY,GRAND PRAIRIE,TX,75051,57.0,445120.0,Y,07/20/2016,09/01/2016,220,,,No_Match,
32043766842,GUSTAVO RENE MAGALLANES,1510 W 7TH ST,IRVING,TX,75060,57,IS,4,FRUTERIA SONRISAS,1121 W PIONEER DR,IRVING,TX,75061,57.0,445120.0,Y,07/28/2023,06/25/2012,221,32.821854642677,-96.96050629878,Match,Exact
32081816012,HEAVEN AND 73RD LLC,4806 CHESHIRE LN,PARKER,TX,75002,43,CL,1,HEAVEN AND 73RD,5100 LEMMON AVE,DALLAS,TX,75209,57.0,445310.0,Y,04/26/2022,06/01/2022,222,32.824317258736,-96.819857062605,Match,Exact
32061297142,"KIJAN MARKET, LLC",7640 MILITARY PKWY,DALLAS,TX,75227,57,CL,1,FOOD MART,7640 MILITARY PKWY,DALLAS,TX,75227,57.0,445120.0,Y,11/30/2016,01/01/2017,223,32.770409868167,-96.688266063445,Match,Exact
32088365310,2 MS SPIRITS LLC,12116 LONG STEM TRL,FORT WORTH,TX,76244,220,CL,1,3 APPLES LIQUOR,1111 W AIRPORT FWY STE 121,IRVING,TX,75062,57.0,445310.0,Y,03/01/2023,05/01/2023,224,32.837377749755,-96.959742855731,Match,Exact
17106365988,QUALITY LICENSING CORP.,508 SW 8TH ST,BENTONVILLE,AR,72712,0,CT,692,QUALITY LICENSING CORP. STORE #3204 FUEL CENTER,840 E BELT LINE RD,CEDAR HILL,TX,75104,57.0,445310.0,Y,06/09/2015,02/01/2016,225,32.589835244171,-96.924410827583,Match,Exact
32057833413,THAKUR MANAGEMENT LLC,PO BOX 219088 ATTNLICENSING,DALLAS,TX,75221,57,CL,2,7-ELEVEN CONVENIENCE STORE #38466A,2900 MILES RD,SACHSE,TX,75048,57.0,445120.0,Y,12/20/2018,02/15/2019,226,,,No_Match,
17106365988,QUALITY LICENSING CORP.,508 SW 8TH ST,BENTONVILLE,AR,72712,0,CT,771,QUALITY LICENSING CORP. - STORE # 4503,2650 S STATE HIGHWAY 161,GRAND PRAIRIE,TX,75052,57.0,445310.0,Y,10/27/2016,12/01/2016,227,32.707442423359,-97.024092587071,Match,Non_Exact
32077544172,SAI ANIYA RENSA LLC,5112 TEXANA DR,FRISCO,TX,75036,61,CL,1,ONE STOP BEER AND WINE,1422 W KINGSLEY RD STE 100,GARLAND,TX,75041,57.0,445120.0,Y,02/09/2021,02/01/2021,228,32.878651525815,-96.648428318639,Match,Exact
32068736324,OVERFLOWING WATER INC,4568 E TROPICANA AVE,LAS VEGAS,NV,89121,0,CT,2,SALADMASTER,1016 W TRINITY MILLS RD STE 208,CARROLLTON,TX,75006,57.0,445299.0,Y,01/22/2024,12/01/2023,229,32.982669479174,-96.912167577667,Match,Exact
17430106579,"H-E-B, LP",PO BOX 839999,SAN ANTONIO,TX,78283,15,PL,624,JOE V'S SMART SHOP #805,7700 SAMUELL BLVD,DALLAS,TX,75227,57.0,445110.0,Y,09/10/2024,12/09/2024,230,,,No_Match,
32044372327,TRADER JOE'S EAST INC.,800 S SHAMROCK AVE,MONROVIA,CA,91016,0,CF,11,TRADER JOE'S #405,5550 W LOVERS LN STE 168,DALLAS,TX,75209,57.0,445110.0,Y,09/10/2013,12/01/2013,231,,,No_Match,
32064141040,NELLY PATRICIA MAGALLANES,1510 W 7TH ST,IRVING,TX,75060,57,IS,3,FRUTERIA Y NEVERIA TROPICAL,1207 S MACARTHUR BLVD,IRVING,TX,75060,57.0,445230.0,Y,07/28/2023,10/01/2018,232,32.802085846616,-96.959277045209,Match,Exact
32098039673,"KHATRI BROTHERS, LLC.",2406 GRIZZLY RUN LN,EULESS,TX,76039,220,CL,1,CASA HIMALAYA,3343 COUNTRY CLUB DR W,IRVING,TX,75038,57.0,445120.0,Y,01/01/2025,01/01/2025,233,32.86077396343,-96.991121054618,Match,Exact
32046567783,NEELKANTH VARNI LLC,5025 REMINGTON DR,GARLAND,TX,75044,57,CL,1,AD BEER & WINE,565 W OATES RD STE 115,GARLAND,TX,75043,57.0,445310.0,Y,02/02/2012,02/14/2012,234,32.848359596807,-96.616822005716,Match,Exact
32053102722,"HOR & LAY, LLC",2625 OLD DENTON RD STE 456,CARROLLTON,TX,75007,57,CL,1,"HOR & LAY, LLC",1300 E BELT LINE RD,CARROLLTON,TX,75006,57.0,445291.0,Y,03/27/2014,04/01/2014,235,32.953706559819,-96.904607611055,Match,Exact
17106365988,QUALITY LICENSING CORP.,508 SW 8TH ST,BENTONVILLE,AR,72712,0,CT,587,QUALITY LICENSING CORP. STORE #5624,13100 JOSEY LN,FARMERS BRANCH,TX,75234,57.0,445310.0,Y,05/02/2014,05/19/2014,236,32.923371709192,-96.881499302801,Match,Exact
32075747728,SAI SUBARNA INC.,6714 CHRISTINA LN,GARLAND,TX,75043,57,CT,1,ALTA FOOD MART,2824 N BUCKNER BLVD,DALLAS,TX,75228,57.0,445120.0,Y,03/04/2025,02/01/2021,237,32.812843394533,-96.686288113076,Match,Non_Exact
32072615464,CFM2 INC,4460 W WALNUT ST STE 108,GARLAND,TX,75042,57,CT,2,GUAPITO'S,4460 W WALNUT ST STE 108,GARLAND,TX,75042,57.0,445120.0,Y,03/03/2025,03/01/2025,238,32.916497340274,-96.699744432793,Match,Exact
32037990689,JALARAM FOODS LLC,6217 MONTE CRISTO LN,PLANO,TX,75024,43,CL,1,INDIA BAZAAR,8600 N MACARTHUR BLVD # 100102,IRVING,TX,75063,57.0,445110.0,Y,02/25/2009,04/01/2009,239,32.923711064182,-96.95508450744,Match,Non_Exact
17106365988,QUALITY LICENSING CORP.,508 SW 8TH ST,BENTONVILLE,AR,72712,0,CT,473,QUALITY LICENSING CORP #2976,915 N TOWN EAST BLVD,MESQUITE,TX,75150,57.0,445310.0,Y,05/26/2011,06/01/2011,240,,,No_Match,
32084698946,HUDSON DALLAS LOVE FIELD CONCESSIONAIRES LLC,1 MEADOWLANDS PLZ,E RUTHERFORD,NJ,07073,0,CL,6,DUNKIN DONUTS (2312),8008 CEDAR SPRINGS RD,DALLAS,TX,75235,57.0,445291.0,Y,09/09/2024,10/01/2024,241,,,No_Match,
17106365988,QUALITY LICENSING CORP.,508 SW 8TH ST,BENTONVILLE,AR,72712,0,CT,331,QUALITY LICENSING CORP #1118,12300 LAKE JUNE RD,BALCH SPRINGS,TX,75180,57.0,445310.0,Y,09/14/2006,08/01/2006,242,,,No_Match,
32012675420,STEVEN A BAIR,213 LANE ST,MESQUITE,TX,75149,57,IS,4,STEVEN BAIR,213 LANE ST,MESQUITE,TX,75149,57.0,445299.0,Y,10/25/2024,09/26/2019,243,32.767979739914,-96.600436404817,Match,Non_Exact
17418740332,"FIESTA MART, L.L.C.",600 CITADEL DR,COMMERCE,CA,90040,0,CL,96,FIESTA MART # 68,6401 ABRAMS RD,DALLAS,TX,75231,57.0,445110.0,Y,08/15/2008,10/01/2008,244,32.861130141848,-96.745174384446,Match,Exact
32074711030,ZEE STOP LLC,1012 GARDENIA ST,CARROLLTON,TX,75007,61,CL,5,ZEE'S STOP TOWN EAST MALL,2063 TOWN EAST MALL,MESQUITE,TX,75150,57.0,445120.0,Y,07/01/2021,06/28/2021,245,32.811655283603,-96.631423015949,Match,Non_Exact
32055604162,"LMMM DALLAS #41, LTD.",PO BOX 55009,HOUSTON,TX,77255,101,PL,1,LA MICHOACANA MEAT MARKET,2600 S ZANG BLVD,DALLAS,TX,75224,57.0,445110.0,Y,11/24/2015,01/20/2016,246,,,No_Match,
32087609205,ACROSS ENTERPRISE LLC,4913 FERGUS LN,CARROLLTON,TX,75010,61,CL,1,EZ TRIP #25,8240 ABRAMS RD,DALLAS,TX,75231,57.0,445120.0,Y,01/13/2023,02/01/2023,247,,,No_Match,
17418740332,"FIESTA MART, L.L.C.",600 CITADEL DR,COMMERCE,CA,90040,0,CL,77,FIESTA MART #53,975 E IRVING BLVD,IRVING,TX,75060,57.0,445110.0,Y,05/02/2000,06/01/2000,248,32.811880443181,-96.934647852314,Match,Exact
32057554167,SAM & MARIO INC,10938 ELAM RD,BALCH SPRINGS,TX,75180,57,CT,1,BEVERAGE 4 U,10938 ELAM RD,BALCH SPRINGS,TX,75180,57.0,445120.0,Y,08/20/2015,07/01/2015,249,32.719292971768,-96.638150211006,Match,Exact
17513185730,"GOODY GOODY LIQUOR, INC.",10370 OLYMPIC DR,DALLAS,TX,75220,57,CT,27,BUCKEYE LIQOUR-WHOLESALE,10741 KING WILLIAM DR,DALLAS,TX,75220,57.0,445310.0,Y,03/29/2007,03/01/2007,250,32.87248775394,-96.90022184786,Match,Exact
32093026865,BYUNG HEOU SHO,9410 WALNUT ST STE 108,DALLAS,TX,75243,57,IS,1,BYUNG HEOU SHO,9410 WALNUT ST,DALLAS,TX,75243,57.0,445291.0,Y,01/03/2024,01/03/2024,251,32.923353592746,-96.736977667789,Match,Exact
17418740332,"FIESTA MART, L.L.C.",600 CITADEL DR,COMMERCE,CA,90040,0,CL,80,FIESTA MART #58,8060 SPRING VALLEY RD,DALLAS,TX,75240,57.0,445110.0,Y,01/04/2002,01/02/2002,252,32.939817658108,-96.767916594749,Match,Exact
32078028886,RAZ STORES LLC,11055 DENNIS RD STE 3,DALLAS,TX,75229,57,CL,2,DENNIS WATER & BEER WINE,11055 DENNIS RD STE 3,DALLAS,TX,75229,57.0,445120.0,Y,12/11/2021,12/01/2021,253,32.898892355787,-96.881447629342,Match,Exact
32063533080,TEAM BAILEY LLC,7720 WINDSOR DR,ALLENTOWN,PA,18106,0,CL,20,DOMINO'S #6820,510 S CARRIER PKWY STE 141,GRAND PRAIRIE,TX,75051,57.0,445299.0,Y,12/13/2017,01/08/2018,254,32.739781748566,-97.014693068267,Match,Exact
17525673715,"NAINA CORPORATION, INC.",2621 CHAMBERS LN,PLANO,TX,75093,43,CT,4,STOP & BUY,1608 S 5TH ST,GARLAND,TX,75040,57.0,445120.0,Y,03/07/2016,03/07/2016,255,32.898769353591,-96.636257332403,Match,Exact
32008302815,LEONARDO HERNANDEZ,3048 LAVITA LN,FARMERS BRNCH,TX,75234,57,IS,1,T C SHAVED ICE,3117 S 1ST ST,GARLAND,TX,75041,57.0,445299.0,Y,04/29/1993,04/01/1993,256,32.877987800392,-96.630986235409,Match,Exact
17515697823,"ASSOCIATED DISTRIBUTORS, INC.",2653 AUSTIN HWY,SAN ANTONIO,TX,78218,15,CT,5,"ASSOCIATED DISTRIBUTORS, INC.",1508 FALCON DR,DESOTO,TX,75115,57.0,445110.0,Y,04/12/2010,04/12/2010,257,32.618980161594,-96.851793524987,Match,Exact
17106365988,QUALITY LICENSING CORP.,508 SW 8TH ST,BENTONVILLE,AR,72712,0,CT,620,QUALITY LICENSING CORP. # 7232,108 W PARKERVILLE RD,DESOTO,TX,75115,57.0,445310.0,Y,08/21/2014,11/20/2014,258,32.575221008814,-96.865687922511,Match,Exact
17106365988,QUALITY LICENSING CORP.,508 SW 8TH ST,BENTONVILLE,AR,72712,0,CT,568,QUALITY LICENSING CORP. #6182,3972 N CENTRAL EXPY,DALLAS,TX,75204,57.0,445310.0,Y,01/03/2014,05/15/2014,259,32.810370834827,-96.7916764338,Match,Exact
32062080711,"SCBO, LLC",112 SUNSHINE DR,EULESS,TX,76039,220,CL,2,T C GROCERY,5050 CROZIER ST,DALLAS,TX,75215,57.0,445120.0,Y,12/05/2016,02/01/2017,260,32.750885709667,-96.754090514384,Match,Exact
32050790735,BEER & WINE CONVENIENCE STORE INC,9220 SKILLMAN ST STE 105,DALLAS,TX,75243,57,CT,1,BEER & WINE CONVENIENCE STORE INC,9220 SKILLMAN ST STE 105,DALLAS,TX,75243,57.0,445120.0,Y,05/10/2013,04/01/2013,261,32.902762790318,-96.714508794008,Match,Exact
32075248081,"SURMA ENTERPRISE, LLC",2425 W WALNUT ST STE 200,GARLAND,TX,75042,57,CL,1,SURMA GROCERY AND ETHIOPIAN CUISINE,2425 W WALNUT ST STE 200,GARLAND,TX,75042,57.0,445299.0,Y,06/24/2024,09/01/2020,262,32.916418940705,-96.664344229557,Match,Exact
32074743892,M&J MEAT MARKET INC,3214 WUTHERING CIR,GRAND PRAIRIE,TX,75052,57,CT,1,EL POTOSINO MEAT MARKET,1017 FORT WORTH ST STE 550,GRAND PRAIRIE,TX,75050,57.0,445210.0,Y,06/27/2020,09/01/2020,263,32.743191410931,-97.017406098632,Match,Exact
32015634044,CARLOS V VITELA,125 SUMMER PLACE DR,COPPELL,TX,75019,57,IS,4,CARLOS V VITELA,125 SUMMER PLACE DR,COPPELL,TX,75019,57.0,445230.0,Y,10/14/2020,10/09/2020,264,32.970085373216,-97.00143559253,Match,Exact
32085848581,THE COTTAGE GROCERY LLC,5628 MILLER AVE,DALLAS,TX,75206,57,CL,1,THE COTTAGE GROCERY,4919 MCKINNEY AVE,DALLAS,TX,75205,57.0,445110.0,Y,03/05/2025,06/01/2025,265,32.827283148271,-96.785015650736,Match,Exact
32063533080,TEAM BAILEY LLC,7720 WINDSOR DR,ALLENTOWN,PA,18106,0,CL,1,DOMINO'S #6973,402 E WHEATLAND RD,DUNCANVILLE,TX,75116,57.0,445299.0,Y,12/13/2017,01/08/2018,266,32.647231798856,-96.901793735219,Match,Exact
32054937431,"LIQUOR DEPOT BEAR CREEK, L.P.",2331 W NORTHWEST HWY STE 201,DALLAS,TX,75220,57,PL,4,LIQUOR DEPOT,1308 E BEAR CREEK RD STE 130,GLENN HEIGHTS,TX,75154,57.0,445310.0,Y,12/14/2016,12/15/2016,267,32.560299009916,-96.82486781351,Match,Exact
32069970500,"ANJSM, LLC",14129 STARS RD,FRISCO,TX,75035,43,CL,1,ABRAMS FOOD MART,9730 ABRAMS RD STE 114,DALLAS,TX,75243,57.0,445120.0,Y,03/08/2019,03/15/2019,268,,,No_Match,
19434245650,RASIKMANI CORPORATION,2050 N STEMMONS FWY UNIT 199,DALLAS,TX,75207,57,CT,7,PLAZA SUNDRY & GIFTS,901 MAIN ST STE C128,DALLAS,TX,75202,57.0,445120.0,Y,05/02/2013,06/03/2013,269,32.779629946101,-96.804235790932,Match,Exact
32063533080,TEAM BAILEY LLC,7720 WINDSOR DR,ALLENTOWN,PA,18106,0,CL,4,DOMINO'S #6929,2419 W ILLINOIS AVE,DALLAS,TX,75233,57.0,445299.0,Y,12/13/2017,01/08/2018,270,32.720399408791,-96.857513018757,Match,Exact
32059042922,ZAU YIN LA HTAW,3409 MONTREAL DR,PLANO,TX,75023,43,IS,1,MYANMAR STORE,6887 SHADYBROOK LN,DALLAS,TX,75231,57.0,445110.0,Y,12/15/2015,01/01/2016,271,32.871185346945,-96.762671737424,Match,Exact
32063533080,TEAM BAILEY LLC,7720 WINDSOR DR,ALLENTOWN,PA,18106,0,CL,11,DOMINO'S #6824,10045 N MACARTHUR BLVD STE 109,IRVING,TX,75063,57.0,445299.0,Y,12/13/2017,01/08/2018,272,32.940460743644,-96.952214427152,Match,Exact
32090329353,KTM BUSINESS LLC,718 AMBER DR,GREENVILLE,TX,75402,116,CL,2,BEST BUY BEVERAGE,5011 MILITARY PKWY STE B,DALLAS,TX,75227,57.0,445310.0,Y,06/21/2023,06/21/2023,273,32.783776269089,-96.73266662144,Match,Non_Exact
32053418854,COLUMBIA KWIK STOP LLC,106 S FITZHUGH AVE,DALLAS,TX,75226,57,CL,1,C K STOP,106 S FITZHUGH AVE,DALLAS,TX,75226,57.0,445120.0,Y,03/25/2014,04/01/2014,274,,,No_Match,
17418740332,"FIESTA MART, L.L.C.",600 CITADEL DR,COMMERCE,CA,90040,0,CL,101,FIESTA MART # 73,1145 W AIRPORT FWY,IRVING,TX,75062,57.0,445110.0,Y,08/15/2008,10/01/2008,275,32.837373554743,-96.96024625982,Match,Exact
17418740332,"FIESTA MART, L.L.C.",600 CITADEL DR,COMMERCE,CA,90040,0,CL,103,FIESTA MART # 75,1332 S PLANO RD,RICHARDSON,TX,75081,57.0,445110.0,Y,08/15/2008,10/01/2008,276,32.932891798917,-96.700192905955,Match,Exact
32054869980,"MCCLURGE ENTERPRISES, LLC",812 REGAL BLUFF LN,DESOTO,TX,75115,57,CL,4,MCCLURGE'S COFFEE & SNACKS,401 TOM LANDRY HWY,DALLAS,TX,75260,57.0,445299.0,Y,01/22/2024,01/22/2024,277,,,No_Match,
32031553103,"ZAHARA, INC.",817 LOTUS DR,RICHARDSON,TX,75081,57,CT,1,7-ELEVEN CONVENIENCE #33321A,5712 SKILLMAN ST,DALLAS,TX,75206,57.0,445120.0,Y,05/10/2007,06/18/2007,278,,,No_Match,
12003291866,KELLOGG SALES COMPANY,1 KELLOGG SQ,BATTLE CREEK,MI,49017,0,CF,1,KELLOGG SALES COMPANY,2722 S JUPITER RD,GARLAND,TX,75041,57.0,445110.0,Y,12/22/2003,01/01/2004,279,,,No_Match,
17508732769,RANDALL'S FOOD & DRUGS LP,PO BOX 29096 C/O MS 6531,PHOENIX,AZ,85038,0,PF,65,RANDALL'S FOOD & DRUG # 3563,633 W WHEATLAND RD,DUNCANVILLE,TX,75116,57.0,445110.0,Y,05/15/2001,05/02/2001,280,32.647541167727,-96.922891037501,Match,Exact
32037325662,"I-45 BEVERAGE DEPOT, L.P.",2907 HIGHWAY 121,BEDFORD,TX,76021,220,PL,2,I-45 BEVERAGE DEPOT LIQUOR BEER WINE,410 N INTERSTATE 45 SERVICE RD STE A,HUTCHINS,TX,75141,57.0,445310.0,Y,07/03/2008,09/01/2008,281,32.652871703628,-96.710298512836,Match,Non_Exact
17106365988,QUALITY LICENSING CORP.,508 SW 8TH ST,BENTONVILLE,AR,72712,0,CT,400,QUALITY LICENSING CORP STORE #2105,13307 MIDWAY RD,FARMERS BRANCH,TX,75244,57.0,445310.0,Y,01/25/2008,03/01/2008,282,32.925900884283,-96.839074320695,Match,Exact
32068214694,"TEQUILA FOR YOU, LLC",508 ANGELA LN,EULESS,TX,76039,220,CL,2,"TEQUILA FOR YOU, LLC",10750 N STEMMONS FWY # 4,DALLAS,TX,75220,57.0,445310.0,Y,05/23/2023,06/01/2023,283,32.873195578742,-96.897398225225,Match,Exact
17430106587,"HEB BEVERAGE COMPANY, LLC",PO BOX 839999,SAN ANTONIO,TX,78283,15,CL,559,JOE V'S SMART SHOP #805,7700 SAMUELL BLVD,DALLAS,TX,75227,57.0,445310.0,Y,09/10/2024,12/09/2024,284,,,No_Match,
32032802715,BIUMA VERONIQUE BANGA,3009 N BELT LINE RD,IRVING,TX,75062,57,IS,4,AFRICAN FOOD STORE,3009 N BELT LINE RD,IRVING,TX,75062,57.0,445110.0,Y,11/29/2022,08/14/2013,285,32.84764201008,-96.992356366747,Match,Exact
32086728808,SS SIMPLY PARTNERS LLC,2076 HIDALGO LN,FRISCO,TX,75034,61,CL,1,SUPREME BEER & WINE,2932 N BUCKNER BLVD,DALLAS,TX,75228,57.0,445120.0,Y,11/29/2022,01/01/2023,286,32.761283331974,-96.68263773858,Match,Non_Exact
13715507789,"PETRO LINE, INC.",777 W LYNDON B JOHNSON FWY,IRVING,TX,75063,57,CT,1,GATEWAY #22,777 W LYNDON B JOHNSON FWY,IRVING,TX,75063,57.0,445120.0,Y,10/05/2007,11/15/2007,287,,,No_Match,
32097386158,KRAMER SMOKE & CONVENIENCE STORE LLC,3600 W DAVIS ST # 103,DALLAS,TX,75211,57,CL,1,KRAMER SMOKE AND CONVENIENCE STORE,3600 W DAVIS ST # 103,DALLAS,TX,75211,57.0,445120.0,Y,11/13/2024,01/01/2025,288,32.749497298572,-96.878364962357,Match,Exact
32082836035,TOTAL SPIRITS INC,735 BROOKSTONE DR,IRVING,TX,75039,57,CT,3,LIQUOR DEN,591 W PIONEER PKWY,GRAND PRAIRIE,TX,75051,57.0,445310.0,Y,02/08/2022,02/08/2022,289,,,No_Match,
32048188737,BERHANE LLC,PO BOX 219088 ATTNLICENSING,DALLAS,TX,75221,57,CL,1,7-ELEVEN CONVENIENCE STORE #35424,8201 E R L THORNTON FWY,DALLAS,TX,75228,57.0,445120.0,Y,06/13/2012,07/01/2012,290,,,No_Match,
32081357280,4 STRANGERS LLC,13234 SEATTLE SLEW ST,FRISCO,TX,75035,43,CL,1,THE LIQUOR OUTPOST,4070 N BELT LINE RD STE 114,IRVING,TX,75038,57.0,445310.0,Y,10/19/2021,11/10/2021,291,32.862877325634,-96.991716298938,Match,Exact
32040242243,STSR INVESTMENTS LP,1473 TRAIL VIEW LN,FRISCO,TX,75034,61,PL,2,CANDY WORLD,460 CEDAR SAGE DR,GARLAND,TX,75040,57.0,445299.0,Y,10/30/2015,11/01/2015,292,32.952540851574,-96.610367322118,Match,Exact
32095061530,LADERACH NORTH TX LLC,23740 WOODFORD PLACE DR,KINGWOOD,TX,77339,170,CI,1,LADERACH NORTH TX LLC,8687 N CENTRAL EXPY # C2-630,DALLAS,TX,75225,57.0,445292.0,Y,05/15/2024,07/01/2024,293,32.869463265005,-96.770779861721,Match,Non_Exact
10106415143,"SHELLIE CURTIS, INC.",217 N KAUFMAN ST,SEAGOVILLE,TX,75159,57,CT,1,MIGALITOS SUPERMERCADO #1,1050 S BELTLINE RD,DALLAS,TX,75253,57.0,445110.0,Y,04/02/2002,05/01/2002,294,32.685501007032,-96.590927864159,Match,Non_Exact
17606039679,"RANDALL'S BEVERAGE COMPANY, INC.",PO BOX 29096,PHOENIX,AZ,85038,0,CT,147,TOM THUMB #2526,39 ARAPAHO VILLAGE CTR,RICHARDSON,TX,75080,57.0,445110.0,Y,11/08/2006,01/01/2007,295,32.962165043667,-96.74931921595,Match,Exact
32080333779,FRESH DINING CONCEPTS LLC,1600 PONCE DE LEON BLVD FL 10,CORAL GABLES,FL,33134,0,CI,12,JAMBA JUICE,6440 N MACARTHUR BLVD,IRVING,TX,75039,57.0,445299.0,Y,08/31/2022,10/01/2022,296,32.89677132277,-96.958650606905,Match,Exact
32087171024,AMBER NICOLE WALLACE,105 SUNVIEW ST,SUNNYVALE,TX,75182,57,IS,1,MUD PUDDLE CO.,105 SUNVIEW ST,SUNNYVALE,TX,75182,57.0,445291.0,Y,11/22/2022,10/01/2022,297,32.820987454954,-96.595563019297,Match,Non_Exact
32092689390,"RUYA INVESTMENTS, INC.",211 E LYNN CREEK DR,ARLINGTON,TX,76002,220,CT,1,FAMILY MART,8020 S POLK ST,DALLAS,TX,75232,57.0,445120.0,Y,12/22/2023,01/01/2024,298,,,No_Match,
12604344262,"MALONE'S FOOD STORES, LLC",4850 SAMUELL BLVD,MESQUITE,TX,75149,57,CL,2,MALONE'S COST PLUS # 2,7007 LAKE JUNE RD,DALLAS,TX,75217,57.0,445110.0,Y,09/07/2007,09/01/2007,299,32.734491696162,-96.701007107282,Match,Exact
17530460967,KINTLA INCORPORATED,3111 MONTICELLO AVE STE A,DALLAS,TX,75205,57,CT,2,BRIAN'S WINE & MORE,3109 MONTICELLO AVE,DALLAS,TX,75205,57.0,445310.0,Y,01/30/2008,03/01/2008,300,32.827267008653,-96.786525352753,Match,Exact
17515349359,"YATES GROUP, INC.",2015 GALLERIA OAKS DR,TEXARKANA,TX,75503,19,CT,356,E-Z MART #5486,5520 LYONS RD,GARLAND,TX,75043,57.0,445120.0,Y,07/11/2019,05/01/2019,301,32.84825743302,-96.569442053676,Match,Exact
17508732769,RANDALL'S FOOD & DRUGS LP,PO BOX 29096 C/O MS 6531,PHOENIX,AZ,85038,0,PF,197,TOM THUMB #3623 FUEL STATION,214 E PLEASANT RUN RD,DE SOTO,TX,75115,57.0,445110.0,Y,06/28/2004,07/01/2004,302,32.604024063767,-96.855925343931,Match,Non_Exact
17528481256,"EYOB HAILE, ET AL",5530 COLUMBIA AVE,DALLAS,TX,75214,57,PI,1,COLUMBIA FOOD MART,5530 COLUMBIA AVE,DALLAS,TX,75214,57.0,445120.0,Y,12/29/1999,10/01/1999,303,32.800281215211,-96.757117241417,Match,Exact
32063533080,TEAM BAILEY LLC,7720 WINDSOR DR,ALLENTOWN,PA,18106,0,CL,3,DOMINO'S #6805,1135 E IRVING BLVD,IRVING,TX,75060,57.0,445299.0,Y,12/13/2017,01/08/2018,304,32.810930321779,-96.932765370566,Match,Exact
32063533080,TEAM BAILEY LLC,7720 WINDSOR DR,ALLENTOWN,PA,18106,0,CL,22,DOMINO'S #6915,1050 N WESTMORELAND RD STE 110,DALLAS,TX,75211,57.0,445299.0,Y,12/13/2017,01/08/2018,305,32.755021150879,-96.873966828844,Match,Exact
32037843276,"GE FOODLAND 51, LLC",1105 E BELT LINE RD,CARROLLTON,TX,75006,57,CL,1,FOODLAND MARKETS 51,8411 LAKE JUNE RD,DALLAS,TX,75217,57.0,445110.0,Y,10/01/2008,10/09/2008,306,32.734363062166,-96.675544790432,Match,Exact
17528749462,"SUPERTARGET LIQUOR OF TEXAS, INC.",PO BOX 9471,MINNEAPOLIS,MN,55440,0,CT,153,TARGET STORE T-1032,7845 N MACARTHUR BLVD,IRVING,TX,75063,57.0,445310.0,Y,01/26/2009,03/01/2009,307,32.91323005904,-96.958837762476,Match,Exact
17524528720,POONJA CORPORATION,1422 ACTON AVE,DUNCANVILLE,TX,75137,57,CT,8,MY-T-QUICK FOOD STORE,1422 ACTON AVE,DUNCANVILLE,TX,75137,57.0,445120.0,Y,10/24/2012,11/01/2012,308,32.635079440853,-96.900766961069,Match,Exact
32040291398,EVEREST VIEW CORPORATION,1501 PIPELINE RD E STE B,BEDFORD,TX,76022,220,CT,1,QUICK TRACK #8,501 N GALLOWAY AVE,MESQUITE,TX,75149,57.0,445120.0,Y,09/23/2009,09/10/2009,309,32.762870809544,-96.598824480118,Match,Non_Exact
32064141040,NELLY PATRICIA MAGALLANES,1510 W 7TH ST,IRVING,TX,75060,57,IS,2,FRUTERIA SONRISAS #2,3317 N STORY RD,IRVING,TX,75062,57.0,445230.0,Y,07/28/2023,06/25/2018,310,32.849824693677,-96.976492504644,Match,Exact
32057358742,GANGA DEVI BRAHMIN BHATTARAI,2715 MERLOT CIR,ROWLETT,TX,75088,57,IS,1,OK MINI MART,3022 S SHILOH RD STE A,GARLAND,TX,75041,57.0,445120.0,Y,06/12/2015,06/01/2015,311,32.879735207672,-96.665400778262,Match,Non_Exact
32098998837,LA TANA LLC,5900 BALCONES DR STE 100,AUSTIN,TX,78731,227,CI,1,LA TANA LLC,5601 W LOVERS LN STE 120,DALLAS,TX,75209,57.0,445291.0,Y,03/05/2025,03/08/2025,312,,,No_Match,
32041007645,"LA REGIONAL, INC.",300 E JEFFERSON BLVD,DALLAS,TX,75203,57,CT,2,SUPER MERCADO MONTERREY,435 E DANIELDALE RD,DUNCANVILLE,TX,75137,57.0,445110.0,Y,10/06/2016,10/04/2016,313,32.632954041083,-96.902155461042,Match,Exact
32084698946,HUDSON DALLAS LOVE FIELD CONCESSIONAIRES LLC,1 MEADOWLANDS PLZ,E RUTHERFORD,NJ,07073,0,CL,5,JASON DELI,8008 CEDAR SPRINGS RD,DALLAS,TX,75235,57.0,445299.0,Y,09/09/2024,10/01/2024,314,,,No_Match,
32061917558,"313 GROUP, INC.",2524 S LANCASTER RD,DALLAS,TX,75216,57,CT,1,313 SHOP,2524 S LANCASTER RD,DALLAS,TX,75216,57.0,445120.0,Y,11/08/2016,11/01/2016,315,32.719522700661,-96.804460807808,Match,Exact
32026816622,HASSAN ALHUSAINI,1640 S COCKRELL HILL RD,GLENN HEIGHTS,TX,75154,57,IS,2,TIGER MART #65,1640 S COCKRELL HILL RD,GLENN HEIGHTS,TX,75154,57.0,445120.0,Y,01/18/2013,01/19/2013,316,,,No_Match,
17106365988,QUALITY LICENSING CORP.,508 SW 8TH ST,BENTONVILLE,AR,72712,0,CT,564,QUALITY LICENSING CORP. #2433,101 W BUCKINGHAM RD,GARLAND,TX,75040,57.0,445310.0,Y,11/08/2013,03/01/2014,317,,,No_Match,
12051410343,"LMMM DALLAS #27, LTD.",PO BOX 55009,HOUSTON,TX,77255,101,PL,1,LA MICHOACANA MEAT MARKET DALLAS #27,2004 E BELT LINE RD,CARROLLTON,TX,75006,57.0,445110.0,Y,07/17/2006,08/01/2006,318,32.95354493818,-96.886377660972,Match,Exact
14312832968,"MORAN FOODS, LLC",400 NORTHWEST PLAZA DR,SAINT ANN,MO,63074,0,CI,75,SAVE A LOT #725,3021 MARTIN LUTHER KING JR BLVD,DALLAS,TX,75215,57.0,445110.0,Y,09/04/2007,10/11/2007,319,32.771445612207,-96.765841021804,Match,Exact
32091616246,"LMMM DALLAS #47, LTD.",8830 LONG POINT RD STE 700,HOUSTON,TX,77055,101,PL,1,LA MICHOACANA SUPERMARKET #30,4202 PIONEER RD,BALCH SPRINGS,TX,75180,57.0,445110.0,Y,09/23/2023,10/18/2023,320,32.712966250668,-96.605339778331,Match,Exact
32089578267,"LMMM DALLAS #46, LTD.",8830 LONG POINT RD STE 700,HOUSTON,TX,77055,101,PL,1,LA MICHOACANA SUPERMARKET #28,1150 W KIEST BLVD STE 201,DALLAS,TX,75224,57.0,445110.0,Y,05/20/2023,06/07/2023,321,32.705729983079,-96.842446436719,Match,Exact
10106415143,"SHELLIE CURTIS, INC.",217 N KAUFMAN ST,SEAGOVILLE,TX,75159,57,CT,3,MIGALITOS SUPERMERCADO #5,3160 SATURN RD STE 202,GARLAND,TX,75041,57.0,445110.0,Y,09/15/2017,09/26/2017,322,32.877742130748,-96.648134156335,Match,Exact
32050882938,YSK INC,254 S RIVERFRONT BLVD,DALLAS,TX,75207,57,CT,1,CHEAP RIVER LIQUOR,254 S RIVERFRONT BLVD,DALLAS,TX,75207,57.0,445310.0,Y,05/13/2013,06/01/2013,323,,,No_Match,
32063533080,TEAM BAILEY LLC,7720 WINDSOR DR,ALLENTOWN,PA,18106,0,CL,16,DOMINO'S #6835,3725 S CARRIER PKWY STE 115,GRAND PRAIRIE,TX,75052,57.0,445299.0,Y,12/13/2017,01/08/2018,324,32.683880194625,-97.008575827194,Match,Exact
17106365988,QUALITY LICENSING CORP.,508 SW 8TH ST,BENTONVILLE,AR,72712,0,CT,669,QUALITY LICENSING CORP STORE #2105 FUEL CENTER,4142 LYNDON B JOHNSON FWY,DALLAS,TX,75244,57.0,445310.0,Y,03/25/2015,07/01/2015,325,,,No_Match,
32077293713,MAGISH INTL FOOD LLC,940 E BELT LINE RD STE 122,RICHARDSON,TX,75081,57,CL,1,UAC INTERNATIONAL FOOD,940 E BELT LINE RD STE 122,RICHARDSON,TX,75081,57.0,445110.0,Y,02/13/2023,01/01/2021,326,32.947843888232,-96.712340039606,Match,Exact
12031221802,TICK TAK INC,3000 W PIONEER DR,IRVING,TX,75061,57,CT,1,DAIRY MART #6,3000 W PIONEER DR,IRVING,TX,75061,57.0,445120.0,Y,07/12/2005,08/01/2005,327,32.828339450776,-96.986731943475,Match,Exact
32051224007,L AND A 1ST INVESTMENT LLC,667 SLEEPY CREEK DR,FRISCO,TX,75036,61,CL,1,SPEEDY B MART,2302 W WALNUT HILL LN,IRVING,TX,75038,57.0,445120.0,Y,06/17/2013,06/18/2013,328,,,No_Match,
32064141040,NELLY PATRICIA MAGALLANES,1510 W 7TH ST,IRVING,TX,75060,57,IS,4,FRUTERIA SONRISAS #3,4070 N BELT LINE RD STE 113,IRVING,TX,75038,57.0,445230.0,Y,07/28/2023,02/18/2019,329,32.862877325634,-96.991716298938,Match,Exact
32020223395,ALDI (TEXAS) L.L.C.,2500 WESTCOURT RD,DENTON,TX,76207,61,CL,20,ALDI (TEXAS) L.L.C. #35,5828 ABRAMS RD,DALLAS,TX,75214,57.0,445110.0,Y,01/08/2010,04/01/2010,330,32.855866334958,-96.750521679376,Match,Exact
32063533080,TEAM BAILEY LLC,7720 WINDSOR DR,ALLENTOWN,PA,18106,0,CL,14,DOMINO'S #9291,920 S BELT LINE RD STE 100,COPPELL,TX,75019,57.0,445299.0,Y,12/13/2017,01/08/2018,331,32.946977271077,-96.993373175787,Match,Exact
32069838806,EVIAD LLC,2101 FOXBOROUGH TRL,FLOWER MOUND,TX,75028,61,CL,1,DAIRY WAY# 9,1810 W KINGSLEY RD STE 101,GARLAND,TX,75041,57.0,445120.0,Y,04/02/2019,05/10/2019,332,32.878655942236,-96.653895093243,Match,Exact
17418740332,"FIESTA MART, L.L.C.",600 CITADEL DR,COMMERCE,CA,90040,0,CL,88,FIESTA MART # 57,2951 S BUCKNER BLVD,DALLAS,TX,75227,57.0,445110.0,Y,03/13/2003,05/15/2003,333,,,No_Match,
32053872019,SAI SANDRA GROUP LLC,10024 DALY DR,HURST,TX,76053,220,CL,6,SAI MART,700 N CLARK RD STE 108,DUNCANVILLE,TX,75116,57.0,445120.0,Y,02/26/2021,02/25/2021,334,,,No_Match,
17430106587,"HEB BEVERAGE COMPANY, LLC",PO BOX 839999,SAN ANTONIO,TX,78283,15,CL,270,HEB DALLAS #552,2777 N STEMMONS FWY STE 108,DALLAS,TX,75207,57.0,445310.0,Y,09/21/2001,09/01/2001,335,32.809399409927,-96.847026112345,Match,Exact
17106365988,QUALITY LICENSING CORP.,508 SW 8TH ST,BENTONVILLE,AR,72712,0,CT,619,QUALITY LICENSING CORP. #7224,350 N BLUEGROVE RD,LANCASTER,TX,75146,57.0,445310.0,Y,08/21/2014,11/20/2014,336,32.59076402333,-96.787340715019,Match,Exact
32095540947,"RAYZAYN INVESTMENTS, LLC",4306 LONE OAK DR,MANSFIELD,TX,76063,220,CL,1,ZAYN GLOBAL MARKET,920 S BELT LINE RD STE 110,COPPELL,TX,75019,57.0,445110.0,Y,07/23/2024,09/01/2024,337,32.946977271077,-96.993373175787,Match,Exact
32052502203,KINGSLEY ENTERPRISES LLC,1433 W KINGSLEY RD STE 101,GARLAND,TX,75041,57,CL,1,KINGSLEY GROCERY AND CHECK CASHING STORE,1433 W KINGSLEY RD STE 101,GARLAND,TX,75041,57.0,445120.0,Y,06/21/2023,06/01/2014,338,32.878952006917,-96.64498868457,Match,Exact
32017281356,"TEXAS ICE VENDING, LLC",4100 ELDORADO PKWY STE 100,MCKINNEY,TX,75070,43,CL,1,TEXAS ICE VENDING,7834 LAKE JUNE RD,DALLAS,TX,75217,57.0,445299.0,Y,03/01/2007,06/15/2006,339,32.734121752519,-96.687722705569,Match,Exact
32063533080,TEAM BAILEY LLC,7720 WINDSOR DR,ALLENTOWN,PA,18106,0,CL,7,DOMINO'S #6924,1820 W MOCKINGBIRD LN STE 150,DALLAS,TX,75235,57.0,445299.0,Y,12/13/2017,01/08/2018,340,32.822105298144,-96.854919541534,Match,Exact
17106365988,QUALITY LICENSING CORP.,508 SW 8TH ST,BENTONVILLE,AR,72712,0,CT,520,QUALITY LICENSING CORP #5288,220 N HIGHWAY 175,SEAGOVILLE,TX,75159,57.0,445310.0,Y,11/19/2012,12/19/2012,341,32.648132507701,-96.537449365396,Match,Exact
32093511593,CAN2FIRECRACKERS LLC,5803 FOXGLOVE LN,DALLAS,TX,75249,57,CL,1,CAN2FIRECRACKERS,5803 FOXGLOVE LN,DALLAS,TX,75249,57.0,445292.0,Y,09/24/2024,04/08/2024,342,32.655729402032,-96.970515492159,Match,Exact
32006387636,KAYYAM A MOHAMMED,1517 BLUE MESA RD,CARROLLTON,TX,75007,61,IS,1,EXECU-STORE,2200 ROSS AVE STE 200,DALLAS,TX,75201,57.0,445120.0,Y,12/21/1994,11/01/1994,343,,,Tie,
32044785049,W D F M ENTERPRISES INC,619 W DAVIS ST,DALLAS,TX,75208,57,CT,1,WEST DAVIS FOOD MART,619 W DAVIS ST,DALLAS,TX,75208,57.0,445120.0,Y,08/15/2011,09/01/2011,344,32.749507163961,-96.832088124476,Match,Exact
32063533080,TEAM BAILEY LLC,7720 WINDSOR DR,ALLENTOWN,PA,18106,0,CL,6,DOMINO'S #6968,15203 KNOLL TRAIL DR STE 115,DALLAS,TX,75248,57.0,445299.0,Y,12/13/2017,01/08/2018,345,32.96238833638,-96.818996734734,Match,Exact
14312832968,"MORAN FOODS, LLC",400 NORTHWEST PLAZA DR,SAINT ANN,MO,63074,0,CI,83,SAVE-A-LOT #120,3322 N BUCKNER BLVD STE 120,DALLAS,TX,75228,57.0,445110.0,Y,02/09/2011,02/24/2011,346,32.801648291063,-96.682057518469,Match,Exact
13002189754,"M. CACERES ENTERPRISES, INC.",3720 WALNUT HILL LN STE 109,DALLAS,TX,75229,57,CT,6,RESTAURANT SANTA ROSA,3217 W DAVIS ST,DALLAS,TX,75211,57.0,445120.0,Y,10/19/2010,10/19/2010,347,32.749611567476,-96.872877225737,Match,Exact
32052326413,"HENRY & BASS, INC.",PO BOX 219088 ATTNLICENSING DEPT.,DALLAS,TX,75221,57,CT,2,7-ELEVEN CONVENIENCE STORE #35648A,3020 N HAMPTON RD,DALLAS,TX,75212,57.0,445120.0,Y,10/04/2013,10/04/2013,348,32.77899521305,-96.856452813683,Match,Exact
32020099506,MATHEWS JOHN,921 GRAYSTONE DR,GARLAND,TX,75043,57,IS,1,NEW DAIRY WAY,1551 CENTERVILLE RD,DALLAS,TX,75228,57.0,445120.0,Y,06/28/2006,07/15/2006,349,,,No_Match,
32093263682,EXPRESSWAY FOOD STORE LLC,1620 AUTUMN CHASE SQ,BEDFORD,TX,76022,220,CL,1,EXPRESSWAY FOOD STORE LLC,2537 VALLEY VIEW LN,FARMERS BRANCH,TX,75234,57.0,445120.0,Y,01/27/2024,02/01/2024,350,32.924030636563,-96.895430032839,Match,Exact
32044674656,NASS LLC,1512 LLANO DR,EULESS,TX,76039,220,CL,4,PAYLESS FOOD & BEER & WINE,3249 DAWES DR,DALLAS,TX,75211,57.0,445120.0,Y,09/13/2024,12/01/2024,351,32.727202832284,-96.873352453341,Match,Exact
32054183523,MAYA GAL LLC,11411 HILLGUARD RD,DALLAS,TX,75243,57,CL,1,EL RIO GRANDE LATIN MARKET #9,2106 N GALLOWAY AVE,MESQUITE,TX,75150,57.0,445110.0,Y,09/11/2015,11/01/2015,352,32.793115114056,-96.612025689389,Match,Exact
32094356949,D & Z STAR LLC,8702 SPRING VALLEY RD STE D,DALLAS,TX,75240,57,CL,1,NEW VALLEY MART,8702 SPRING VALLEY RD STE D,DALLAS,TX,75240,57.0,445120.0,Y,04/17/2024,04/16/2024,353,32.939909934926,-96.752407996669,Match,Non_Exact
17508732769,RANDALL'S FOOD & DRUGS LP,PO BOX 29096 C/O MS 6531,PHOENIX,AZ,85038,0,PF,116,RANDALL'S FOOD AND DRUG # 2578,2535 NORTHEAST PKWY,GARLAND,TX,75040,57.0,445110.0,Y,05/16/2001,05/02/2001,354,,,No_Match,
32047462299,ANNABELLE & LOGAN COMPANY LLC,PO BOX 219088 ATTN:LICENSING,DALLAS,TX,75221,57,CL,1,7-ELEVEN CONVENIENCE STORE #35405,3716 MAPLE AVE,DALLAS,TX,75219,57.0,445120.0,Y,03/30/2012,05/01/2012,355,32.803690760855,-96.813716093189,Match,Exact
17606039679,"RANDALL'S BEVERAGE COMPANY, INC.",PO BOX 29096,PHOENIX,AZ,85038,0,CT,205,TOM THUMB 3311,2727 LIVE OAK ST,DALLAS,TX,75204,57.0,445110.0,Y,01/09/2020,12/06/2020,356,32.788838263314,-96.789165987978,Match,Exact
32063533080,TEAM BAILEY LLC,7720 WINDSOR DR,ALLENTOWN,PA,18106,0,CL,10,DOMINO'S #9221,401 W ROCHELLE RD,IRVING,TX,75062,57.0,445299.0,Y,12/13/2017,01/08/2018,357,32.844399552893,-96.949802130205,Match,Exact
32059802614,PANADERIA LA NUEVA LLC,7034 MILITARY PKWY,DALLAS,TX,75227,57,CL,1,PANADERIA LA NUEVA LLC,7034 MILITARY PKWY,DALLAS,TX,75227,57.0,445291.0,Y,05/04/2016,04/01/2016,358,32.77228206973,-96.698459060534,Match,Exact
32082836035,TOTAL SPIRITS INC,735 BROOKSTONE DR,IRVING,TX,75039,57,CT,1,LIQUOR DEN,3950 S CARRIER PKWY STE 170,GRAND PRAIRIE,TX,75052,57.0,445310.0,Y,02/08/2022,02/08/2022,359,32.678114095763,-97.007045159346,Match,Exact
32055066339,NEPMEX LLC,481 RIDGE MEADE DR,LEWISVILLE,TX,75067,61,CL,1,7-ELEVEN CONVENIENCE STORE #24634A,4163 W NORTHGATE DR,IRVING,TX,75062,57.0,445120.0,Y,09/18/2014,10/01/2014,360,32.85715813396,-97.007282077856,Match,Exact
18414445173,"VITAMIN COTTAGE NATURAL FOOD MARKETS, INC",12612 W ALAMEDA PKWY ATTN:  TERRI CLARKE,LAKEWOOD,CO,80228,0,CF,4,NATURAL GROCERS BY VITAMIN COTTAGE,11661 PRESTON RD STE 224,DALLAS,TX,75230,57.0,445110.0,Y,07/02/2010,08/31/2010,361,32.907411093185,-96.804225634501,Match,Exact
17529366258,"AKK, INC.",6402 E MOCKINGBIRD LN STE B,DALLAS,TX,75214,57,CT,2,TCBY,1229 ADMIRAL NIMITZ CIRCLE EMBARCADERO B,DALLAS,TX,75210,57.0,445299.0,Y,06/23/2006,09/01/2006,362,,,No_Match,
32045118778,"LMMM DALLAS #39, LTD.",PO BOX 55009,HOUSTON,TX,77255,101,PL,1,LA MICHOACANA MEAT MARKET DALLAS #39,24315 LYNDON B JOHNSON FWY # 635,MESQUITE,TX,75180,57.0,445210.0,Y,03/12/2012,04/01/2012,363,,,No_Match,
17418740332,"FIESTA MART, L.L.C.",600 CITADEL DR,COMMERCE,CA,90040,0,CL,90,FIESTA MART #65,2225 W LEDBETTER DR,DALLAS,TX,75224,57.0,445110.0,Y,02/06/2007,03/21/2007,364,32.691265324675,-96.854886993414,Match,Exact
32089711595,EW CORPORATION,8122 FOREST LN STE A,DALLAS,TX,75243,57,CT,2,1ST CHOICE GROCERY,8122 FOREST LN STE A,DALLAS,TX,75243,57.0,445110.0,Y,05/24/2023,05/03/2023,365,32.909129941351,-96.766582903694,Match,Non_Exact
32063963873,"MEADOW TWO HOSPITALITY, LP",1200 W WALNUT HILL LN # 2525,IRVING,TX,75038,57,PL,1,HILTON GARDEN INN,10350 N CENTRAL EXPY,DALLAS,TX,75231,57.0,445120.0,Y,11/15/2019,01/30/2020,366,32.886723058608,-96.76953128428,Match,Exact
32009814867,MARY E EDWARDS,3733 PINEBROOK DR,DALLAS,TX,75241,57,IS,2,N & M ENTERPRISE,3733 PINEBROOK DR,DALLAS,TX,75241,57.0,445292.0,Y,01/03/2003,01/15/2003,367,32.668312999262,-96.762671062035,Match,Exact
32033857106,SALVADOR RUVALCABA JIMENEZ,9061 COUNTY ROAD 4116,KAUFMAN,TX,75142,129,IS,4,LA CHAPALITA #3,2650 HICKORY TREE RD # 103,BALCH SPRINGS,TX,75180,57.0,445299.0,Y,03/18/2024,09/01/2015,368,32.733312341356,-96.622517027144,Match,Exact
32009065296,YEONG G YOO,910 E GRAUWYLER RD,IRVING,TX,75061,57,IS,1,DONUT HUT,910 E GRAUWYLER RD,IRVING,TX,75061,57.0,445291.0,Y,04/18/1994,04/01/1994,369,32.829555527505,-96.935195091672,Match,Exact
32087157684,COPPELL SPRINGHILL BEVERAGE LLC,8530 ESTERS BLVD CHASE HOSPITALITY LLC,IRVING,TX,75063,57,CL,2,COPPELL SPRINGHILL MARKET,150 HACKBERRY RD,COPPELL,TX,75019,57.0,445310.0,Y,12/08/2022,03/01/2023,370,,,No_Match,
17528749462,"SUPERTARGET LIQUOR OF TEXAS, INC.",PO BOX 9471,MINNEAPOLIS,MN,55440,0,CT,73,TARGET STORE T-0875,2417 N HASKELL AVE,DALLAS,TX,75204,57.0,445310.0,Y,04/27/2006,03/01/2006,371,,,No_Match,
17418740332,"FIESTA MART, L.L.C.",600 CITADEL DR,COMMERCE,CA,90040,0,CL,138,FIESTA MARK #212,3230 MARTIN LUTHER KING JR BLVD,DALLAS,TX,75210,57.0,445110.0,Y,08/05/2016,09/09/2016,372,32.773171700087,-96.763694517647,Match,Exact
17508732769,RANDALL'S FOOD & DRUGS LP,PO BOX 29096 C/O MS 6531,PHOENIX,AZ,85038,0,PF,75,RANDALL'S FOOD AND DRUGS #2503,4001 VILLANOVA ST,DALLAS,TX,75225,57.0,445110.0,Y,05/15/2001,05/02/2001,373,32.864299520573,-96.801895134454,Match,Exact
30117746872,"COX FARMS MARKET, INC.",1026 S MAIN ST,DUNCANVILLE,TX,75137,57,CT,1,COX FARMS MARKET,1026 S MAIN ST,DUNCANVILLE,TX,75137,57.0,445230.0,Y,02/11/2012,03/01/2012,374,32.641147130912,-96.90835009461,Match,Exact
32057606843,MANTHA 2111 INC,2111 S CESAR CHAVEZ BLVD,DALLAS,TX,75215,57,CT,1,SOUTH CENTRAL 1ST GAS BEER & WINE,2111 S CESAR CHAVEZ BLVD,DALLAS,TX,75215,57.0,445120.0,Y,03/13/2025,07/01/2015,375,,,No_Match,
32055827326,"NORSAT ENTERPRISES, INC.",4517 SATURN RD,GARLAND,TX,75041,57,CT,1,1 STOP FOOD STORE,4517 SATURN RD,GARLAND,TX,75041,57.0,445120.0,Y,01/06/2015,02/01/2015,376,32.862684722082,-96.648432239095,Match,Exact
32058713838,"JAYPRABHU INVESTMENTS, LLC",2126 W NORTHWEST HWY,DALLAS,TX,75220,57,CL,1,SUPER SEALS GROCERY,2769 W CLARENDON DR,DALLAS,TX,75211,57.0,445120.0,Y,11/13/2015,01/01/2016,377,32.734840884593,-96.865599978412,Match,Exact
13000654718,"SANIA ENTERPRISES, INC.",4801 LAKESHORE CT,COLLEYVILLE,TX,76034,220,CT,2,CHEVRON FOOD MART #201,7107 S R L THORNTON FWY,DALLAS,TX,75232,57.0,445120.0,Y,09/26/2007,10/01/2007,378,32.662127550188,-96.823540176426,Match,Exact
32060631333,ALMOSS LLC,10967 N STEMMONS FWY,DALLAS,TX,75220,57,CL,1,LEGACY LIQUOR & WINE,10967 N STEMMONS FWY,DALLAS,TX,75220,57.0,445310.0,Y,12/23/2021,07/01/2016,379,32.87738222065,-96.898185746433,Match,Exact
32051934761,LANA BUSINESS INC,103 S INTERSTATE HWY 45,WILMER,TX,75172,199,CT,3,WILMER CHEVRON,104 S INTERSTATE HIGHWAY 45,WILMER,TX,75172,57.0,445120.0,Y,11/29/2023,01/01/2024,380,,,No_Match,
32086880757,SLRD LLC,1634 MINERAL SPRINGS DR,ALLEN,TX,75002,43,CL,1,COWBOYS LIQUOR NO1,3367 CONFLANS RD STE 100,IRVING,TX,75061,57.0,445310.0,Y,12/06/2022,11/18/2022,381,32.821849396571,-96.992859342932,Match,Exact
32018464191,BONOGRAM INC.,2548 DICKERSON PKWY STE 112,CARROLLTON,TX,75006,57,CT,1,CARROLLTON INDOPAK SUPERMARKET,2548 DICKERSON PARKWAY,CARROLLTON,TX,75006,57.0,445110.0,Y,11/16/2005,11/16/2005,382,32.980483723164,-96.920728682143,Match,Exact
32079900695,ROCHELLE BUSINESS LLC,1700 LOMAR DR,CARROLLTON,TX,75007,61,CL,2,XPRESS MART,2121 W ROCHELLE RD STE 103,IRVING,TX,75062,57.0,445120.0,Y,07/16/2021,08/01/2021,383,32.842266752805,-96.972933879706,Match,Exact
13521837156,"SAVCOP, LTD.",PO BOX 177307,IRVING,TX,75017,57,PL,1,SAVERS-COST PLUS,504 N O CONNOR RD,IRVING,TX,75061,57.0,445110.0,Y,12/13/2002,10/01/2002,384,32.818922250785,-96.949456332992,Match,Exact
17106365988,QUALITY LICENSING CORP.,508 SW 8TH ST,BENTONVILLE,AR,72712,0,CT,255,QUALITY LICENSING CORP #1216,1213 E TRINITY MILLS RD,CARROLLTON,TX,75006,57.0,445310.0,Y,09/15/2004,10/15/2004,385,32.982722220577,-96.915746410979,Match,Non_Exact
32098097036,ZAVLON SOLIS,4108 KERNACK ST,DALLAS,TX,75211,57,IS,1,S.Z.S PRODUCE,3308 FORT WORTH AVE,DALLAS,TX,75211,57.0,445230.0,Y,12/31/2024,01/01/2025,386,,,No_Match,
32049681441,TAJMAHAL ASIAN GROCERIES LLC,6246 BROADWAY BLVD STE C,GARLAND,TX,75043,57,CL,1,TAJMAHAL ASIAN GROCERIES,6246 BROADWAY BLVD STE C,GARLAND,TX,75043,57.0,445110.0,Y,12/27/2012,01/01/2013,387,32.837548093567,-96.59549257612,Match,Non_Exact
32064594735,"E. S. CHANG, INC",2681 MACARTHUR BLVD STE 207,LEWISVILLE,TX,75067,61,CT,1,LANCASTER DOUNTS,630 W PLEASANT RUN RD STE 148,LANCASTER,TX,75146,57.0,445291.0,Y,08/26/2017,09/01/2017,388,32.604845189193,-96.765423196867,Match,Exact
17528019429,"HERBMART, INC.",PO BOX 328,BIG SANDY,TX,75755,230,CT,3,HERBMART,3330 N GALLOWAY AVE STE 150,MESQUITE,TX,75150,57.0,445110.0,Y,03/19/2002,03/19/2002,389,32.810403103973,-96.611056599389,Match,Exact
17525872804,E-Z SUPPLIES INC.,4616 NORTHWEST HWY,GARLAND,TX,75043,57,CT,1,E-Z SHOP #7,4616 NORTHWEST HWY,GARLAND,TX,75043,57.0,445120.0,Y,03/21/1995,05/31/1995,390,32.860864714948,-96.642305248741,Match,Exact
17418740332,"FIESTA MART, L.L.C.",600 CITADEL DR,COMMERCE,CA,90040,0,CL,81,FIESTA MART #54,2940 S 1ST ST,GARLAND,TX,75041,57.0,445110.0,Y,01/31/2002,04/10/2002,391,,,No_Match,
32017417919,JOSE A RODRIGUEZ,2259 ANSON RD,DALLAS,TX,75235,57,IS,1,AMIGOS GROCERY,2259 ANSON RD,DALLAS,TX,75235,57.0,445110.0,Y,05/16/2005,05/16/2005,392,32.832903092836,-96.854403843007,Match,Exact
17106365988,QUALITY LICENSING CORP.,508 SW 8TH ST,BENTONVILLE,AR,72712,0,CT,293,QUALITY LICENSING CORP (STORE #2975),3959 BROADWAY BLVD,GARLAND,TX,75043,57.0,445310.0,Y,05/11/2005,05/15/2005,393,32.86551966218,-96.606477039229,Match,Exact
32087989664,"A&S LIQUOR BEER & WINE, INC.",3115 W PARKER RD STE 470,PLANO,TX,75023,43,CT,2,TOP END LIQUOR BEER & WINE,7606 GREENVILLE AVE,DALLAS,TX,75231,57.0,445310.0,Y,03/01/2023,04/01/2023,394,32.886212197502,-96.757884730336,Match,Exact
32052964593,RAHELEW-2 INC.,2109 PEAKWOOD DR,GARLAND,TX,75044,57,CT,1,7-ELEVEN CONVENIENCE STORE #37014A,1502 ELM ST,DALLAS,TX,75201,57.0,445120.0,Y,03/10/2014,05/15/2014,395,32.781303544892,-96.799625590647,Match,Exact
32073845482,"DOORDASH ESSENTIALS, LLC",303 2ND ST STE 800,SAN FRANCISCO,CA,94107,0,CI,28,DOORDASH ESSENTIALS,215 W CAMP WISDOM RD STE #12/15,DUNCANVILLE,TX,75116,57.0,445120.0,Y,07/25/2022,10/01/2022,396,32.661980580212,-96.908909328756,Match,Non_Exact
32084698946,HUDSON DALLAS LOVE FIELD CONCESSIONAIRES LLC,1 MEADOWLANDS PLZ,E RUTHERFORD,NJ,07073,0,CL,7,DUNKIN DONUTS (2310),8008 CEDAR SPRINGS RD,DALLAS,TX,75235,57.0,445299.0,Y,09/09/2024,10/01/2024,397,,,No_Match,
32007635546,MICHAEL NEUGEBAUER,1201 MAIN ST STE P250,DALLAS,TX,75202,57,IS,1,POP'S CORN SHOPPE,1201 MAIN ST STE P250,DALLAS,TX,75202,57.0,445292.0,Y,01/23/2008,06/15/2000,398,32.780250444073,-96.801289261722,Match,Exact
12017736906,TFM CORPORATION,1608 S 5TH ST,GARLAND,TX,75040,57,CT,3,STOP & BUY,1608 S 5TH ST,GARLAND,TX,75040,57.0,445120.0,Y,05/19/2008,05/01/2008,399,32.898769353591,-96.636257332403,Match,Exact
17522735798,"G. FOODS INTERNATIONAL OF DALLAS, INC.",2950 W COMMERCE ST,DALLAS,TX,75212,57,CT,3,G FOODS INTERNATIONAL OF DALLAS,2950 W COMMERCE ST,DALLAS,TX,75212,57.0,445110.0,Y,10/31/2006,01/01/2005,400,32.774607140331,-96.871009864054,Match,Exact
17106365988,QUALITY LICENSING CORP.,508 SW 8TH ST,BENTONVILLE,AR,72712,0,CT,628,QUALITY LICENSING CORP STORE # 5074,15757 COIT RD,DALLAS,TX,75248,57.0,445310.0,Y,09/25/2014,12/15/2014,401,32.963090399509,-96.76903087861,Match,Non_Exact
32074884217,NS3 ALLIANCE INCORPORATED,7024 BENJAMIN WAY,COLLEYVILLE,TX,76034,220,CT,1,HMS MART MESQUITE,3733 N TOWN EAST BLVD,MESQUITE,TX,75150,57.0,445120.0,Y,08/14/2020,09/01/2020,402,32.797215995848,-96.651884796838,Match,Exact
17528564820,"NAYEBCORP, INC.",6336 GREENVILLE AVE STE C,DALLAS,TX,75206,57,CT,10,SHOP N GO #4,5609 ALPHA RD,DALLAS,TX,75240,57.0,445120.0,Y,11/02/2011,11/30/2011,403,32.932934292254,-96.809999136189,Match,Exact
32096618601,GOLDEN CAPITAL GROUP LLC,1052 KENILWORTH ST,ALLEN,TX,75013,43,CL,4,CORNER STORE,10304 FOREST LN,DALLAS,TX,75243,57.0,445120.0,Y,03/14/2025,02/01/2025,404,32.90869582739,-96.705667298059,Match,Exact
32072558334,"IRVING INWOOD BEVERAGES, INC.",2907 IRVING BLVD,DALLAS,TX,75247,57,CT,2,ARCADIA LIQUOR,2214 INWOOD RD,DALLAS,TX,75235,57.0,445310.0,Y,12/03/2019,12/01/2019,405,,,No_Match,
32014890167,PAULINO DIAZ ET AL,4029 W JEFFERSON BLVD,DALLAS,TX,75211,57,PI,2,DIAZ GROCERY,4029 W JEFFERSON BLVD,COCKRELL HILL,TX,75211,57.0,445110.0,Y,05/04/2009,04/01/2009,406,32.738702123681,-96.886117780874,Match,Non_Exact
17529689071,BAYAN IMPORTS INC,750 S SHERMAN ST,RICHARDSON,TX,75081,57,CT,1,SARA'S MEDITERRANEAN FOOD,750 S SHERMAN ST,RICHARDSON,TX,75081,57.0,445110.0,Y,02/04/2002,01/01/2002,407,32.942621920169,-96.739028708676,Match,Non_Exact
32083949068,TCG MCKINNEY AVE LLC,5628 MILLER AVE,DALLAS,TX,75206,57,CL,3,THE COTTAGE GROCERY,4919 MCKINNEY AVE,DALLAS,TX,75205,57.0,445110.0,Y,03/13/2025,06/01/2025,408,32.827283148271,-96.785015650736,Match,Exact
32038057876,KHALED RIHANI INC.,414 SANTA ROSA DR,GARLAND,TX,75043,57,CT,1,GOOD TIME FOOD MART,7730 FERGUSON RD,DALLAS,TX,75228,57.0,445120.0,Y,10/10/2008,12/01/2008,409,,,No_Match,
32083687973,"SHREE BHADRAKALI, INC.",8352 WINTER FALLS TRL,HURST,TX,76053,220,CT,1,CHILL ZONE BEER & WINE,11918 SEAGOVILLE RD,BALCH SPRINGS,TX,75180,57.0,445120.0,Y,04/01/2022,04/01/2022,410,32.704662448815,-96.622299763325,Match,Exact
32050333254,"WINCO FOODS, LLC",PO BOX 5756 ATTN: KIRBY SANDBERG,BOISE,ID,83705,0,CI,3,WINCO FOODS,800 S COCKRELL HILL RD,DUNCANVILLE,TX,75137,57.0,445110.0,Y,02/21/2014,05/01/2014,411,32.646176229809,-96.891207336802,Match,Exact
32019403024,SILVINA NOHEMI CUENCA,2500 LAWRENCE ST,DALLAS,TX,75215,57,IS,1,ALLEN'S GROCERY,2500 LAWRENCE ST,DALLAS,TX,75215,57.0,445120.0,Y,03/23/2006,08/15/2006,412,,,No_Match,
32090839450,JIANNA LAXMI INC,9104 CRANDALL DR,FORT WORTH,TX,76244,220,CT,1,M & M FOOD MART,3223 N WESTMORELAND RD STE 3652,DALLAS,TX,75212,57.0,445120.0,Y,08/02/2023,08/01/2023,413,32.780912518887,-96.873884795003,Match,Exact
32050331225,WISDOM BEVERAGE INC.,3917 W CAMP WISDOM RD STE 110,DALLAS,TX,75237,57,CT,1,WISDOM FOOD MART,3917 W CAMP WISDOM RD STE 110,DALLAS,TX,75237,57.0,445120.0,Y,03/11/2013,03/06/2013,414,32.662131584431,-96.882135887757,Match,Exact
32044372327,TRADER JOE'S EAST INC.,800 S SHAMROCK AVE,MONROVIA,CA,91016,0,CF,21,TRADER JOE'S 400,4525 COLE AVE STE 100,DALLAS,TX,75205,57.0,445110.0,Y,02/24/2017,03/01/2017,415,32.822005487146,-96.789632447482,Match,Exact
32078913350,RAGHU CEASAR TIKA LLC,549 ROCKY BRANCH LN,COPPELL,TX,75019,57,CL,1,SHOP N GO GROCERY & DELI,1909 S CESAR CHAVEZ BLVD,DALLAS,TX,75215,57.0,445120.0,Y,04/29/2021,05/01/2021,416,,,No_Match,
17529278206,"SHAHRUKH & SHAHZEB, INC.",3002 E MAIN ST,GRAND PRAIRIE,TX,75050,57,CT,2,EAGLE FOOD MART & CHECK CASHING,3002 E MAIN ST,GRAND PRAIRIE,TX,75050,57.0,445310.0,Y,09/16/2004,09/16/2004,417,32.749457596289,-96.960315829693,Match,Exact
17606039679,"RANDALL'S BEVERAGE COMPANY, INC.",PO BOX 29096,PHOENIX,AZ,85038,0,CT,159,RANDALL'S BEVERAGE #2990,7117 INWOOD RD,DALLAS,TX,75209,57.0,445110.0,Y,10/26/2010,11/17/2010,418,32.844259981662,-96.82153160792,Match,Exact
32040491238,"SHY ENTERPRISES, INC.",12004 ELAM RD,BALCH SPRINGS,TX,75180,57,CT,1,GRAND STOP,12004 ELAM RD,BALCH SPRINGS,TX,75180,57.0,445120.0,Y,10/21/2009,12/01/2009,419,,,No_Match,
32040252846,"FIVE POINTS CORNER, INC.",8405 PARK LN,DALLAS,TX,75231,57,CT,1,TODAY'S DISCOUNT FOOD MART,8405 PARK LN,DALLAS,TX,75231,57.0,445120.0,Y,09/24/2009,09/25/2009,420,32.871224231779,-96.760004646428,Match,Exact
17509164459,"UNITED SUPERMARKETS, L.L.C.",7830 ORLANDO AVE,LUBBOCK,TX,79423,152,CL,57,MARKET STREET #564,700 N DENTON TAP ROAD,COPPELL,TX,75019,57.0,445110.0,Y,10/31/2008,10/28/2008,421,32.988894593757,-96.993126528345,Match,Exact
17508732769,RANDALL'S FOOD & DRUGS LP,PO BOX 29096 C/O MS 6531,PHOENIX,AZ,85038,0,PF,108,RANDALL'S FOOD AND DRUG #3608,7700 W NORTHWEST HWY,DALLAS,TX,75225,57.0,445110.0,Y,05/16/2001,05/02/2001,422,32.865379791187,-96.776354170346,Match,Exact
32020223395,ALDI (TEXAS) L.L.C.,2500 WESTCOURT RD,DENTON,TX,76207,61,CL,21,ALDI (TEXAS) L.L.C. #23,13548 PRESTON RD,DALLAS,TX,75240,57.0,445110.0,Y,01/08/2010,04/01/2010,423,32.932349818617,-96.803524369232,Match,Exact
32080333779,FRESH DINING CONCEPTS LLC,1600 PONCE DE LEON BLVD FL 10,CORAL GABLES,FL,33134,0,CI,19,JAMBA JUICE,13350 DALLAS PKWY,DALLAS,TX,75240,57.0,445299.0,Y,08/31/2022,10/01/2022,424,32.930508319415,-96.820997176582,Match,Exact
32087940758,ARI'S PANTRY LLC,111 N CLINTON AVE,DALLAS,TX,75208,57,CL,1,ARI'S PANTRY LLC,1307 1/2 W DAVIS ST,DALLAS,TX,75208,57.0,445110.0,Y,09/10/2024,04/01/2024,425,32.749557566201,-96.842940513807,Match,Non_Exact
17606039679,"RANDALL'S BEVERAGE COMPANY, INC.",PO BOX 29096,PHOENIX,AZ,85038,0,CT,168,RANDALL'S #3522,522 PRESTON ROYAL SHOPPING CTR,DALLAS,TX,75230,57.0,445110.0,Y,01/18/2011,12/18/2010,426,32.89527176902,-96.805367779588,Match,Exact
32078058206,THE IRVING BAKERY LLC,1850 MERCER PKWY APT 13407,FARMERS BRNCH,TX,75234,57,CL,1,THE IRVING BAKERY,925 W JOHN CARPENTER FWY STE 104,IRVING,TX,75039,57.0,445291.0,Y,06/22/2021,07/01/2021,427,32.888945517716,-96.959114200621,Match,Exact
32059869480,EFRAIN CAMPOS,2930 GRAFTON AVE,DALLAS,TX,75211,57,IS,2,DULCERIA ESTRELLITA,735 N WESTMORELAND RD,DALLAS,TX,75211,57.0,445120.0,Y,09/22/2016,08/05/2016,428,32.749257113296,-96.8742380824,Match,Exact
32034544935,BAWA FUEL CORPORATION,1313 ONEIDA DR,CARROLLTON,TX,75010,61,CT,1,STOP & SHOP #2,5328 LEMMON AVE,DALLAS,TX,75209,57.0,445120.0,Y,01/17/2013,03/01/2013,429,32.826069127227,-96.821823758694,Match,Exact
17106365988,QUALITY LICENSING CORP.,508 SW 8TH ST,BENTONVILLE,AR,72712,0,CT,443,QUALITY LICENSING CORP STORE # 6482,5555 S BUCKNER BLVD,DALLAS,TX,75228,57.0,445310.0,Y,10/26/2010,11/01/2010,430,32.795574531303,-96.684115804443,Match,Exact
17418740332,"FIESTA MART, L.L.C.",600 CITADEL DR,COMMERCE,CA,90040,0,CL,136,FISTA MART # 210,10121 LAKE JUNE RD STE 200,DALLAS,TX,75217,57.0,445110.0,Y,08/04/2016,09/24/2016,431,32.734261389989,-96.649993026153,Match,Exact
32053217652,SOLEIL INC.,2839 ANODE LN,DALLAS,TX,75220,57,CT,1,SOLEIL INC.,2938 ANODE LN,DALLAS,TX,75220,57.0,445310.0,Y,03/27/2014,05/01/2014,432,32.876674048286,-96.879354819351,Match,Exact
32059854094,"JHKS ENTERPRISE, INC.",2681 MACARTHUR BLVD STE 207,LEWISVILLE,TX,75067,61,CT,2,DONUT HOLE,716 GROSS RD,MESQUITE,TX,75149,57.0,445291.0,Y,04/28/2016,05/01/2016,433,32.764067961914,-96.606510503395,Match,Non_Exact
17418740332,"FIESTA MART, L.L.C.",600 CITADEL DR,COMMERCE,CA,90040,0,CL,53,FIESTA MART #29,611 W JEFFERSON BLVD,DALLAS,TX,75208,57.0,445110.0,Y,07/15/1993,08/01/1993,434,32.743204750763,-96.832362675371,Match,Exact
32017281356,"TEXAS ICE VENDING, LLC",4100 ELDORADO PKWY STE 100,MCKINNEY,TX,75070,43,CL,4,TEXAS ICE VENDING,7011 MILITARY PKWY STE A,DALLAS,TX,75227,57.0,445299.0,Y,08/19/2009,07/10/2009,435,,,No_Match,
32070535011,THE PETER KELLEY GROUP LLC,11901 SHALIMAR WAY,DENTON,TX,76207,61,CL,1,HYPNOTIC DOUGHNUTS,9007 GARLAND RD,DALLAS,TX,75218,57.0,445291.0,Y,05/13/2019,05/01/2019,436,32.826864195644,-96.710649468346,Match,Exact
17418740332,"FIESTA MART, L.L.C.",600 CITADEL DR,COMMERCE,CA,90040,0,CL,122,FIESTA MART # 65,2315 W LEDBETTER DR,DALLAS,TX,75224,57.0,445110.0,Y,08/12/2014,09/01/2014,437,32.691272665591,-96.855931844083,Match,Exact
32083893159,TERRIE'S LUXE CHARCUTERIE LLC,3 GREENWAY PLZ STE 1320,HOUSTON,TX,77046,101,CL,1,TERRIE'S LUXE CHARCUTERIE LLC,1340 ELISE,CEDAR HILL,TX,75104,57.0,445299.0,Y,03/22/2024,04/01/2024,438,32.617520593163,-96.919997559959,Match,Non_Exact
17527918746,"CHASE HOSPITALITY, L.L.C.",8530 ESTERS BLVD,IRVING,TX,75063,57,CL,13,SPRINGHILL MARKET,150 HACKBERRY RD,COPPELL,TX,75019,57.0,445310.0,Y,07/13/2022,09/01/2022,439,,,No_Match,
32050333254,"WINCO FOODS, LLC",PO BOX 5756 ATTN: KIRBY SANDBERG,BOISE,ID,83705,0,CI,12,"WINCO FOODS, LLC",2620 N JOSEY LN,CARROLLTON,TX,75007,57.0,445110.0,Y,01/22/2018,03/29/2018,440,32.986463740335,-96.890626696961,Match,Exact
32053728526,PRODUCTS FOR YOUR TABLE INC,5656 ALPHA RD STE B,DALLAS,TX,75240,57,CT,4,PRODUCTS FOR YOUR TABLE INC,10850 HARRY HINES BLVD STE 170,DALLAS,TX,75220,57.0,445110.0,Y,06/30/2023,05/24/2023,441,32.876401442359,-96.884210789102,Match,Exact
12604344262,"MALONE'S FOOD STORES, LLC",4850 SAMUELL BLVD,MESQUITE,TX,75149,57,CL,10,MALONE'S COST PLUS #7,333 S SAINT AUGUSTINE DR STE 129,DALLAS,TX,75217,57.0,445110.0,Y,09/16/2008,10/01/2008,442,32.707796466042,-96.657106795006,Match,Exact
32079980911,VEGAPSAIPN GROUPS INC,1700 TOPLEA DR,EULESS,TX,76040,220,CT,1,BEER & WINE STOP,1417 N DUNCANVILLE RD,DUNCANVILLE,TX,75116,57.0,445120.0,Y,07/08/2021,08/01/2021,443,32.675786044217,-96.908697135218,Match,Exact
12620610993,DALLAS LIQUOR WHOLESALE INC,3044 OLD DENTON RD STE 300,CARROLLTON,TX,75007,61,CT,1,DALLAS WHOLESALE LIQUOR,2617 FREEWOOD DR,DALLAS,TX,75220,57.0,445310.0,Y,03/06/2008,05/01/2008,444,32.870583230124,-96.890242628049,Match,Exact
32043415226,"SAI SGD, INC.",PO BOX 541895,GRAND PRAIRIE,TX,75054,57,CT,1,BONITA FOOD MART,901 SW 3RD ST,GRAND PRAIRIE,TX,75051,57.0,445120.0,Y,02/03/2011,02/15/2011,445,32.735195984513,-97.005771811797,Match,Exact
32017281356,"TEXAS ICE VENDING, LLC",4100 ELDORADO PKWY STE 100,MCKINNEY,TX,75070,43,CL,12,TEXAS ICE VENDING,103 W OHIO AVE,DALLAS,TX,75224,57.0,445299.0,Y,10/22/2015,10/01/2015,446,32.719543676472,-96.822984178326,Match,Exact
32021914729,ASHLEY ARNO,11816 INWOOD RD,DALLAS,TX,75244,57,IS,5,CORDON WINES,13612 MIDWAY RD # 333-1,FARMERS BRANCH,TX,75244,57.0,445310.0,Y,10/28/2024,09/01/2017,447,32.93336216999,-96.838864833423,Match,Non_Exact
32010713082,JOSE M MONTOYA,3321 W SHADY GROVE RD,IRVING,TX,75060,57,IS,4,TIENDA ANA SALVADORENA,3106 DAWES DR,DALLAS,TX,75211,57.0,445110.0,Y,05/01/2007,04/01/2007,448,32.727088387117,-96.872123214111,Match,Exact
32091876428,MA UNITED CORPORATION,5101 W PARK BLVD # TX,PLANO,TX,75093,43,CT,1,INDIAN SUPER MARKET,8140 N MACARTHUR BLVD STE 110,IRVING,TX,75063,57.0,445110.0,Y,02/21/2024,02/21/2024,449,32.92042439348,-96.958397818706,Match,Exact
32063309424,SAYANI INC.,401 W 6TH ST,IRVING,TX,75060,57,CT,1,RON'S TIENDITA,2140 W GRAUWYLER RD,IRVING,TX,75061,57.0,445120.0,Y,04/14/2017,05/01/2017,450,32.828902798386,-96.974074566825,Match,Exact
32077945874,STAR SUMMIT INC,2400 SOUTHERN OAK DR,IRVING,TX,75063,57,CT,1,MY BEER STORE 10,2315 LAKELAND DR,DALLAS,TX,75228,57.0,445120.0,Y,03/04/2021,03/15/2021,451,,,No_Match,
32037514299,PENZEYS SPICE COMPANY,12001 W CAPITOL DR,MILWAUKEE,WI,53222,0,CF,2,PENZEYS SPICES,12835 PRESTON RD,DALLAS,TX,75230,57.0,445299.0,Y,10/14/2008,10/01/2008,452,32.923407985441,-96.803628974027,Match,Exact
32061307651,"KMH BEVERAGES NO. 2, L.P.",2331 W NORTHWEST HWY STE 201,DALLAS,TX,75220,57,PL,1,LIQUOR DEPOT,1815 W TARRANT RD STE 215,GRAND PRAIRIE,TX,75050,57.0,445310.0,Y,11/26/2019,12/01/2019,453,32.757006098405,-97.027050407644,Match,Exact
